{
"type": "FeatureCollection",
"crs": { "type": "name", "properties": { "name": "urn:ogc:def:crs:EPSG::4269" } },
                                                                                
"features": [
{ "type": "Feature", "id": 1, "properties": { "unitid": 100654, "year": 2011, "instnm.x": "Alabama A & M University", "city": "Normal", "stabbr": "AL", "control": 1, "carnegie": 16, "stfips": 1, "fteug": 4604, "group": 1, "fips": 1089, "instnm.y": "Alabama A & M University", "md_earn_wne_p10": "31400" }, "geometry": { "type": "Point", "coordinates": [ -86.568502, 34.783368 ] } },
{ "type": "Feature", "id": 2, "properties": { "unitid": 100663, "year": 2011, "instnm.x": "University of Alabama at Birmingham", "city": "Birmingham", "stabbr": "AL", "control": 1, "carnegie": 15, "stfips": 1, "fteug": 9927, "group": 1, "fips": 1073, "instnm.y": "University of Alabama at Birmingham", "md_earn_wne_p10": "40300" }, "geometry": { "type": "Point", "coordinates": [ -86.80917, 33.50223 ] } },
{ "type": "Feature", "id": 3, "properties": { "unitid": 100706, "year": 2011, "instnm.x": "University of Alabama at Huntsville", "city": "Huntsville", "stabbr": "AL", "control": 1, "carnegie": 16, "stfips": 1, "fteug": 5211, "group": 1, "fips": 1089, "instnm.y": "University of Alabama at Huntsville", "md_earn_wne_p10": "46600" }, "geometry": { "type": "Point", "coordinates": [ -86.63842, 34.722818 ] } },
{ "type": "Feature", "id": 4, "properties": { "unitid": 100724, "year": 2011, "instnm.x": "Alabama State University", "city": "Montgomery", "stabbr": "AL", "control": 1, "carnegie": 21, "stfips": 1, "fteug": 4929, "group": 2, "fips": 1101, "instnm.y": "Alabama State University", "md_earn_wne_p10": "27800" }, "geometry": { "type": "Point", "coordinates": [ -86.295677, 32.364317 ] } },
{ "type": "Feature", "id": 5, "properties": { "unitid": 100751, "year": 2011, "instnm.x": "The University of Alabama", "city": "Tuscaloosa", "stabbr": "AL", "control": 1, "carnegie": 15, "stfips": 1, "fteug": 23883, "group": 1, "fips": 1125, "instnm.y": "The University of Alabama", "md_earn_wne_p10": "42400" }, "geometry": { "type": "Point", "coordinates": [ -87.545766, 33.2144 ] } },
{ "type": "Feature", "id": 6, "properties": { "unitid": 100760, "year": 2011, "instnm.x": "Central Alabama Community College", "city": "Alexander City", "stabbr": "AL", "control": 1, "carnegie": 40, "stfips": 1, "fteug": 2095, "group": 5, "fips": 1123, "instnm.y": "Central Alabama Community College", "md_earn_wne_p10": "27100" }, "geometry": { "type": "Point", "coordinates": [ -85.94653, 32.924429 ] } },
{ "type": "Feature", "id": 7, "properties": { "unitid": 100812, "year": 2011, "instnm.x": "Athens State University", "city": "Athens", "stabbr": "AL", "control": 1, "carnegie": 32, "stfips": 1, "fteug": 2917, "group": 2, "fips": 1083, "instnm.y": "Athens State University", "md_earn_wne_p10": "39700" }, "geometry": { "type": "Point", "coordinates": [ -86.96514, 34.805625 ] } },
{ "type": "Feature", "id": 8, "properties": { "unitid": 100830, "year": 2011, "instnm.x": "Auburn University at Montgomery", "city": "Montgomery", "stabbr": "AL", "control": 1, "carnegie": 21, "stfips": 1, "fteug": 4073, "group": 2, "fips": 1101, "instnm.y": "Auburn University at Montgomery", "md_earn_wne_p10": "34800" }, "geometry": { "type": "Point", "coordinates": [ -86.177351, 32.369939 ] } },
{ "type": "Feature", "id": 9, "properties": { "unitid": 100858, "year": 2011, "instnm.x": "Auburn University", "city": "Auburn University", "stabbr": "AL", "control": 1, "carnegie": 15, "stfips": 1, "fteug": 19659, "group": 1, "fips": 1081, "instnm.y": "Auburn University", "md_earn_wne_p10": "45400" }, "geometry": { "type": "Point", "coordinates": [ -85.492409, 32.600201 ] } },
{ "type": "Feature", "id": 10, "properties": { "unitid": 100937, "year": 2011, "instnm.x": "Birmingham Southern College", "city": "Birmingham", "stabbr": "AL", "control": 2, "carnegie": 31, "stfips": 1, "fteug": 1527, "group": 4, "fips": 1073, "instnm.y": "Birmingham Southern College", "md_earn_wne_p10": "41900" }, "geometry": { "type": "Point", "coordinates": [ -86.853636, 33.515453 ] } },
{ "type": "Feature", "id": 11, "properties": { "unitid": 101028, "year": 2011, "instnm.x": "Chattahoochee Valley Community College", "city": "Phenix City", "stabbr": "AL", "control": 1, "carnegie": 40, "stfips": 1, "fteug": 1411, "group": 5, "fips": 1113, "instnm.y": "Chattahoochee Valley Community College", "md_earn_wne_p10": "27700" }, "geometry": { "type": "Point", "coordinates": [ -85.031485, 32.42391 ] } },
{ "type": "Feature", "id": 12, "properties": { "unitid": 101073, "year": 2011, "instnm.x": "Concordia College Alabama", "city": "Selma", "stabbr": "AL", "control": 2, "carnegie": 33, "stfips": 1, "fteug": 490, "group": 4, "fips": 1047, "instnm.y": "Concordia College Alabama", "md_earn_wne_p10": "21300" }, "geometry": { "type": "Point", "coordinates": [ -87.024229, 32.422291 ] } },
{ "type": "Feature", "id": 13, "properties": { "unitid": 101143, "year": 2011, "instnm.x": "Enterprise State Community College", "city": "Enterprise", "stabbr": "AL", "control": 1, "carnegie": 40, "stfips": 1, "fteug": 2779, "group": 5, "fips": 1031, "instnm.y": "Enterprise State Community College", "md_earn_wne_p10": "26300" }, "geometry": { "type": "Point", "coordinates": [ -85.836956, 31.297496 ] } },
{ "type": "Feature", "id": 14, "properties": { "unitid": 101161, "year": 2011, "instnm.x": "James H Faulkner State Community College", "city": "Bay Minette", "stabbr": "AL", "control": 1, "carnegie": 40, "stfips": 1, "fteug": 4032, "group": 5, "fips": 1003, "instnm.y": "James H Faulkner State Community College", "md_earn_wne_p10": "28900" }, "geometry": { "type": "Point", "coordinates": [ -87.779758, 30.852045 ] } },
{ "type": "Feature", "id": 15, "properties": { "unitid": 101189, "year": 2011, "instnm.x": "Faulkner University", "city": "Montgomery", "stabbr": "AL", "control": 2, "carnegie": 32, "stfips": 1, "fteug": 2837, "group": 4, "fips": 1101, "instnm.y": "Faulkner University", "md_earn_wne_p10": "37600" }, "geometry": { "type": "Point", "coordinates": [ -86.21641, 32.384181 ] } },
{ "type": "Feature", "id": 16, "properties": { "unitid": 101240, "year": 2011, "instnm.x": "Gadsden State Community College", "city": "Gadsden", "stabbr": "AL", "control": 1, "carnegie": 40, "stfips": 1, "fteug": 5997, "group": 5, "fips": 1055, "instnm.y": "Gadsden State Community College", "md_earn_wne_p10": "26900" }, "geometry": { "type": "Point", "coordinates": [ -85.991299, 33.991866 ] } },
{ "type": "Feature", "id": 17, "properties": { "unitid": 101286, "year": 2011, "instnm.x": "George C Wallace State Community College-Dothan", "city": "Dothan", "stabbr": "AL", "control": 1, "carnegie": 40, "stfips": 1, "fteug": 4206, "group": 5, "fips": 1045, "instnm.y": "George C Wallace State Community College-Dothan", "md_earn_wne_p10": "27100" }, "geometry": { "type": "Point", "coordinates": [ -85.46355, 31.316086 ] } },
{ "type": "Feature", "id": 18, "properties": { "unitid": 101295, "year": 2011, "instnm.x": "George C Wallace State Community College-Hanceville", "city": "Hanceville", "stabbr": "AL", "control": 1, "carnegie": 40, "stfips": 1, "fteug": 5624, "group": 5, "fips": 1043, "instnm.y": "George C Wallace State Community College-Hanceville", "md_earn_wne_p10": "27800" }, "geometry": { "type": "Point", "coordinates": [ -86.781745, 34.07341 ] } },
{ "type": "Feature", "id": 19, "properties": { "unitid": 101301, "year": 2011, "instnm.x": "George C Wallace State Community College-Selma", "city": "Selma", "stabbr": "AL", "control": 1, "carnegie": 40, "stfips": 1, "fteug": 2050, "group": 5, "fips": 1047, "instnm.y": "George C Wallace State Community College-Selma", "md_earn_wne_p10": "24400" }, "geometry": { "type": "Point", "coordinates": [ -87.01324, 32.445611 ] } },
{ "type": "Feature", "id": 20, "properties": { "unitid": 101435, "year": 2011, "instnm.x": "Huntingdon College", "city": "Montgomery", "stabbr": "AL", "control": 2, "carnegie": 31, "stfips": 1, "fteug": 1031, "group": 4, "fips": 1101, "instnm.y": "Huntingdon College", "md_earn_wne_p10": "37100" }, "geometry": { "type": "Point", "coordinates": [ -86.285313, 32.350939 ] } },
{ "type": "Feature", "id": 21, "properties": { "unitid": 101462, "year": 2011, "instnm.x": "J F Drake State Technical College", "city": "Huntsville", "stabbr": "AL", "control": 1, "carnegie": 40, "stfips": 1, "fteug": 1161, "group": 5, "fips": 1089, "instnm.y": "J F Drake State Technical College", "md_earn_wne_p10": "23500" }, "geometry": { "type": "Point", "coordinates": [ -86.573817, 34.772116 ] } },
{ "type": "Feature", "id": 22, "properties": { "unitid": 101471, "year": 2011, "instnm.x": "J F Ingram State Technical College", "city": "Deatsville", "stabbr": "AL", "control": 1, "carnegie": 40, "stfips": 1, "fteug": 690, "group": 5, "fips": 1051, "instnm.y": null, "md_earn_wne_p10": null }, "geometry": { "type": "Point", "coordinates": [ -86.392369, 32.582312 ] } },
{ "type": "Feature", "id": 23, "properties": { "unitid": 101480, "year": 2011, "instnm.x": "Jacksonville State University", "city": "Jacksonville", "stabbr": "AL", "control": 1, "carnegie": 21, "stfips": 1, "fteug": 7180, "group": 2, "fips": 1015, "instnm.y": "Jacksonville State University", "md_earn_wne_p10": "35100" }, "geometry": { "type": "Point", "coordinates": [ -85.766644, 33.822128 ] } },
{ "type": "Feature", "id": 24, "properties": { "unitid": 101499, "year": 2011, "instnm.x": "Jefferson Davis Community College", "city": "Brewton", "stabbr": "AL", "control": 1, "carnegie": 40, "stfips": 1, "fteug": 1093, "group": 5, "fips": 1053, "instnm.y": "Jefferson Davis Community College", "md_earn_wne_p10": "27200" }, "geometry": { "type": "Point", "coordinates": [ -87.085829, 31.101995 ] } },
{ "type": "Feature", "id": 25, "properties": { "unitid": 101505, "year": 2011, "instnm.x": "Jefferson State Community College", "city": "Birmingham", "stabbr": "AL", "control": 1, "carnegie": 40, "stfips": 1, "fteug": 6860, "group": 5, "fips": 1073, "instnm.y": "Jefferson State Community College", "md_earn_wne_p10": "30300" }, "geometry": { "type": "Point", "coordinates": [ -86.707387, 33.652439 ] } },
{ "type": "Feature", "id": 26, "properties": { "unitid": 101514, "year": 2011, "instnm.x": "John C Calhoun State Community College", "city": "Tanner", "stabbr": "AL", "control": 1, "carnegie": 40, "stfips": 1, "fteug": 8814, "group": 5, "fips": 1083, "instnm.y": "John C Calhoun State Community College", "md_earn_wne_p10": "27200" }, "geometry": { "type": "Point", "coordinates": [ -86.949131, 34.65428 ] } },
{ "type": "Feature", "id": 27, "properties": { "unitid": 101541, "year": 2011, "instnm.x": "Judson College", "city": "Marion", "stabbr": "AL", "control": 2, "carnegie": 31, "stfips": 1, "fteug": 387, "group": 4, "fips": 1105, "instnm.y": "Judson College", "md_earn_wne_p10": "30700" }, "geometry": { "type": "Point", "coordinates": [ -87.316127, 32.630526 ] } },
{ "type": "Feature", "id": 28, "properties": { "unitid": 101569, "year": 2011, "instnm.x": "Lawson State Community College-Birmingham Campus", "city": "Birmingham", "stabbr": "AL", "control": 1, "carnegie": 40, "stfips": 1, "fteug": 3978, "group": 5, "fips": 1073, "instnm.y": "Lawson State Community College-Birmingham Campus", "md_earn_wne_p10": "22300" }, "geometry": { "type": "Point", "coordinates": [ -86.890234, 33.451673 ] } },
{ "type": "Feature", "id": 29, "properties": { "unitid": 101587, "year": 2011, "instnm.x": "University of West Alabama", "city": "Livingston", "stabbr": "AL", "control": 1, "carnegie": 21, "stfips": 1, "fteug": 1698, "group": 2, "fips": 1119, "instnm.y": "University of West Alabama", "md_earn_wne_p10": "33800" }, "geometry": { "type": "Point", "coordinates": [ -88.186077, 32.59244 ] } },
{ "type": "Feature", "id": 30, "properties": { "unitid": 101602, "year": 2011, "instnm.x": "Lurleen B Wallace Community College", "city": "Andalusia", "stabbr": "AL", "control": 1, "carnegie": 40, "stfips": 1, "fteug": 1647, "group": 5, "fips": 1039, "instnm.y": "Lurleen B Wallace Community College", "md_earn_wne_p10": "28000" }, "geometry": { "type": "Point", "coordinates": [ -86.452262, 31.322947 ] } },
{ "type": "Feature", "id": 31, "properties": { "unitid": 101648, "year": 2011, "instnm.x": "Marion Military Institute", "city": "Marion", "stabbr": "AL", "control": 1, "carnegie": 40, "stfips": 1, "fteug": 457, "group": 5, "fips": 1105, "instnm.y": "Marion Military Institute", "md_earn_wne_p10": "48500" }, "geometry": { "type": "Point", "coordinates": [ -87.317998, 32.622359 ] } },
{ "type": "Feature", "id": 32, "properties": { "unitid": 101675, "year": 2011, "instnm.x": "Miles College", "city": "Fairfield", "stabbr": "AL", "control": 2, "carnegie": 32, "stfips": 1, "fteug": 1724, "group": 4, "fips": 1073, "instnm.y": "Miles College", "md_earn_wne_p10": "27200" }, "geometry": { "type": "Point", "coordinates": [ -86.908605, 33.481306 ] } },
{ "type": "Feature", "id": 33, "properties": { "unitid": 101693, "year": 2011, "instnm.x": "University of Mobile", "city": "Mobile", "stabbr": "AL", "control": 2, "carnegie": 21, "stfips": 1, "fteug": 1343, "group": 4, "fips": 1097, "instnm.y": "University of Mobile", "md_earn_wne_p10": "37800" }, "geometry": { "type": "Point", "coordinates": [ -88.128934, 30.793247 ] } },
{ "type": "Feature", "id": 34, "properties": { "unitid": 101709, "year": 2011, "instnm.x": "University of Montevallo", "city": "Montevallo", "stabbr": "AL", "control": 1, "carnegie": 21, "stfips": 1, "fteug": 2415, "group": 2, "fips": 1117, "instnm.y": "University of Montevallo", "md_earn_wne_p10": "35100" }, "geometry": { "type": "Point", "coordinates": [ -86.865099, 33.10625 ] } },
{ "type": "Feature", "id": 35, "properties": { "unitid": 101736, "year": 2011, "instnm.x": "Northwest Shoals Community College-Muscle Shoals", "city": "Muscle Shoals", "stabbr": "AL", "control": 1, "carnegie": 40, "stfips": 1, "fteug": 3360, "group": 5, "fips": 1033, "instnm.y": "Northwest Shoals Community College-Muscle Shoals", "md_earn_wne_p10": "26300" }, "geometry": { "type": "Point", "coordinates": [ -87.67733, 34.739567 ] } },
{ "type": "Feature", "id": 36, "properties": { "unitid": 101879, "year": 2011, "instnm.x": "University of North Alabama", "city": "Florence", "stabbr": "AL", "control": 1, "carnegie": 21, "stfips": 1, "fteug": 5435, "group": 2, "fips": 1077, "instnm.y": "University of North Alabama", "md_earn_wne_p10": "36300" }, "geometry": { "type": "Point", "coordinates": [ -87.680999, 34.80658 ] } },
{ "type": "Feature", "id": 37, "properties": { "unitid": 101897, "year": 2011, "instnm.x": "Northeast Alabama Community College", "city": "Rainsville", "stabbr": "AL", "control": 1, "carnegie": 40, "stfips": 1, "fteug": 2903, "group": 5, "fips": 1071, "instnm.y": "Northeast Alabama Community College", "md_earn_wne_p10": "28700" }, "geometry": { "type": "Point", "coordinates": [ -85.911664, 34.545471 ] } },
{ "type": "Feature", "id": 38, "properties": { "unitid": 101912, "year": 2011, "instnm.x": "Oakwood University", "city": "Huntsville", "stabbr": "AL", "control": 2, "carnegie": 32, "stfips": 1, "fteug": 1802, "group": 4, "fips": 1089, "instnm.y": "Oakwood University", "md_earn_wne_p10": "33700" }, "geometry": { "type": "Point", "coordinates": [ -86.661628, 34.756628 ] } },
{ "type": "Feature", "id": 39, "properties": { "unitid": 101949, "year": 2011, "instnm.x": "Alabama Southern Community College", "city": "Monroeville", "stabbr": "AL", "control": 1, "carnegie": 40, "stfips": 1, "fteug": 1386, "group": 5, "fips": 1099, "instnm.y": "Alabama Southern Community College", "md_earn_wne_p10": "23200" }, "geometry": { "type": "Point", "coordinates": [ -87.326352, 31.488925 ] } },
{ "type": "Feature", "id": 40, "properties": { "unitid": 101994, "year": 2011, "instnm.x": "Reid State Technical College", "city": "Evergreen", "stabbr": "AL", "control": 1, "carnegie": 40, "stfips": 1, "fteug": 735, "group": 5, "fips": 1035, "instnm.y": "Reid State Technical College", "md_earn_wne_p10": "20100" }, "geometry": { "type": "Point", "coordinates": [ -86.964486, 31.46071 ] } },
{ "type": "Feature", "id": 41, "properties": { "unitid": 102030, "year": 2011, "instnm.x": "Bishop State Community College", "city": "Mobile", "stabbr": "AL", "control": 1, "carnegie": 40, "stfips": 1, "fteug": 2910, "group": 5, "fips": 1097, "instnm.y": "Bishop State Community College", "md_earn_wne_p10": "22600" }, "geometry": { "type": "Point", "coordinates": [ -88.056982, 30.693972 ] } },
{ "type": "Feature", "id": 42, "properties": { "unitid": 102049, "year": 2011, "instnm.x": "Samford University", "city": "Birmingham", "stabbr": "AL", "control": 2, "carnegie": 21, "stfips": 1, "fteug": 3105, "group": 4, "fips": 1073, "instnm.y": "Samford University", "md_earn_wne_p10": "45800" }, "geometry": { "type": "Point", "coordinates": [ -86.790932, 33.464578 ] } },
{ "type": "Feature", "id": 43, "properties": { "unitid": 102067, "year": 2011, "instnm.x": "Shelton State Community College", "city": "Tuscaloosa", "stabbr": "AL", "control": 1, "carnegie": 40, "stfips": 1, "fteug": 4898, "group": 5, "fips": 1125, "instnm.y": "Shelton State Community College", "md_earn_wne_p10": "24300" }, "geometry": { "type": "Point", "coordinates": [ -87.56148, 33.120531 ] } },
{ "type": "Feature", "id": 44, "properties": { "unitid": 102076, "year": 2011, "instnm.x": "Snead State Community College", "city": "Boaz", "stabbr": "AL", "control": 1, "carnegie": 40, "stfips": 1, "fteug": 2009, "group": 5, "fips": 1095, "instnm.y": "Snead State Community College", "md_earn_wne_p10": "26000" }, "geometry": { "type": "Point", "coordinates": [ -86.16948, 34.20069 ] } },
{ "type": "Feature", "id": 45, "properties": { "unitid": 102094, "year": 2011, "instnm.x": "University of South Alabama", "city": "Mobile", "stabbr": "AL", "control": 1, "carnegie": 16, "stfips": 1, "fteug": 10513, "group": 1, "fips": 1097, "instnm.y": "University of South Alabama", "md_earn_wne_p10": "38300" }, "geometry": { "type": "Point", "coordinates": [ -88.18189, 30.695081 ] } },
{ "type": "Feature", "id": 46, "properties": { "unitid": 102234, "year": 2011, "instnm.x": "Spring Hill College", "city": "Mobile", "stabbr": "AL", "control": 2, "carnegie": 21, "stfips": 1, "fteug": 1402, "group": 4, "fips": 1097, "instnm.y": "Spring Hill College", "md_earn_wne_p10": "43800" }, "geometry": { "type": "Point", "coordinates": [ -88.138199, 30.694751 ] } },
{ "type": "Feature", "id": 47, "properties": { "unitid": 102270, "year": 2011, "instnm.x": "Stillman College", "city": "Tuscaloosa", "stabbr": "AL", "control": 2, "carnegie": 32, "stfips": 1, "fteug": 1201, "group": 4, "fips": 1125, "instnm.y": "Stillman College", "md_earn_wne_p10": "24700" }, "geometry": { "type": "Point", "coordinates": [ -87.585242, 33.199228 ] } },
{ "type": "Feature", "id": 48, "properties": { "unitid": 102298, "year": 2011, "instnm.x": "Talladega College", "city": "Talladega", "stabbr": "AL", "control": 2, "carnegie": 31, "stfips": 1, "fteug": 610, "group": 4, "fips": 1121, "instnm.y": "Talladega College", "md_earn_wne_p10": "25600" }, "geometry": { "type": "Point", "coordinates": [ -86.113675, 33.434258 ] } },
{ "type": "Feature", "id": 49, "properties": { "unitid": 102313, "year": 2011, "instnm.x": "H Councill Trenholm State Technical College", "city": "Montgomery", "stabbr": "AL", "control": 1, "carnegie": 40, "stfips": 1, "fteug": 1670, "group": 5, "fips": 1101, "instnm.y": "H Councill Trenholm State Technical College", "md_earn_wne_p10": "21000" }, "geometry": { "type": "Point", "coordinates": [ -86.343057, 32.350109 ] } },
{ "type": "Feature", "id": 50, "properties": { "unitid": 102368, "year": 2011, "instnm.x": "Troy University", "city": "Troy", "stabbr": "AL", "control": 1, "carnegie": 21, "stfips": 1, "fteug": 16606, "group": 2, "fips": 1109, "instnm.y": "Troy University", "md_earn_wne_p10": "36600" }, "geometry": { "type": "Point", "coordinates": [ -85.950191, 31.800128 ] } },
{ "type": "Feature", "id": 51, "properties": { "unitid": 102377, "year": 2011, "instnm.x": "Tuskegee University", "city": "Tuskegee", "stabbr": "AL", "control": 2, "carnegie": 21, "stfips": 1, "fteug": 2525, "group": 4, "fips": 1087, "instnm.y": "Tuskegee University", "md_earn_wne_p10": "37100" }, "geometry": { "type": "Point", "coordinates": [ -85.710315, 32.431021 ] } },
{ "type": "Feature", "id": 52, "properties": { "unitid": 102429, "year": 2011, "instnm.x": "Bevill State Community College", "city": "Jasper", "stabbr": "AL", "control": 1, "carnegie": 40, "stfips": 1, "fteug": 3840, "group": 5, "fips": 1127, "instnm.y": "Bevill State Community College", "md_earn_wne_p10": "25900" }, "geometry": { "type": "Point", "coordinates": [ -87.265034, 33.835785 ] } },
{ "type": "Feature", "id": 53, "properties": { "unitid": 102553, "year": 2011, "instnm.x": "University of Alaska Anchorage", "city": "Anchorage", "stabbr": "AK", "control": 1, "carnegie": 21, "stfips": 2, "fteug": 11410, "group": 2, "fips": 2020, "instnm.y": "University of Alaska Anchorage", "md_earn_wne_p10": "42000" }, "geometry": { "type": "Point", "coordinates": [ -149.826135, 61.189554 ] } },
{ "type": "Feature", "id": 54, "properties": { "unitid": 102614, "year": 2011, "instnm.x": "University of Alaska Fairbanks", "city": "Fairbanks", "stabbr": "AK", "control": 1, "carnegie": 16, "stfips": 2, "fteug": 5545, "group": 1, "fips": 2090, "instnm.y": "University of Alaska Fairbanks", "md_earn_wne_p10": "38200" }, "geometry": { "type": "Point", "coordinates": [ -147.82475, 64.857053 ] } },
{ "type": "Feature", "id": 55, "properties": { "unitid": 102632, "year": 2011, "instnm.x": "University of Alaska Southeast", "city": "Juneau", "stabbr": "AK", "control": 1, "carnegie": 21, "stfips": 2, "fteug": 1579, "group": 2, "fips": 2110, "instnm.y": "University of Alaska Southeast", "md_earn_wne_p10": "39500" }, "geometry": { "type": "Point", "coordinates": [ -134.636346, 58.38427 ] } },
{ "type": "Feature", "id": 56, "properties": { "unitid": 102669, "year": 2011, "instnm.x": "Alaska Pacific University", "city": "Anchorage", "stabbr": "AK", "control": 2, "carnegie": 21, "stfips": 2, "fteug": 421, "group": 4, "fips": 2020, "instnm.y": "Alaska Pacific University", "md_earn_wne_p10": "47400" }, "geometry": { "type": "Point", "coordinates": [ -149.804242, 61.191235 ] } },
{ "type": "Feature", "id": 57, "properties": { "unitid": 103361, "year": 2011, "instnm.x": "Prince William Sound Community College", "city": "Valdez", "stabbr": "AK", "control": 1, "carnegie": 40, "stfips": 2, "fteug": 297, "group": 5, "fips": 2261, "instnm.y": "Prince William Sound Community College", "md_earn_wne_p10": "42000" }, "geometry": { "type": "Point", "coordinates": [ -146.17799, 61.122364 ] } },
{ "type": "Feature", "id": 58, "properties": { "unitid": 104151, "year": 2011, "instnm.x": "Arizona State University", "city": "Tempe", "stabbr": "AZ", "control": 1, "carnegie": 15, "stfips": 4, "fteug": 52762, "group": 1, "fips": 4013, "instnm.y": "Arizona State University", "md_earn_wne_p10": "45200" }, "geometry": { "type": "Point", "coordinates": [ -111.940011, 33.421921 ] } },
{ "type": "Feature", "id": 59, "properties": { "unitid": 104160, "year": 2011, "instnm.x": "Arizona Western College", "city": "Yuma", "stabbr": "AZ", "control": 1, "carnegie": 40, "stfips": 4, "fteug": 5828, "group": 5, "fips": 4027, "instnm.y": "Arizona Western College", "md_earn_wne_p10": "25600" }, "geometry": { "type": "Point", "coordinates": [ -114.495968, 32.689306 ] } },
{ "type": "Feature", "id": 60, "properties": { "unitid": 104179, "year": 2011, "instnm.x": "University of Arizona", "city": "Tucson", "stabbr": "AZ", "control": 1, "carnegie": 15, "stfips": 4, "fteug": 28938, "group": 1, "fips": 4019, "instnm.y": "University of Arizona", "md_earn_wne_p10": "44400" }, "geometry": { "type": "Point", "coordinates": [ -110.950769, 32.232071 ] } },
{ "type": "Feature", "id": 61, "properties": { "unitid": 104346, "year": 2011, "instnm.x": "Central Arizona College", "city": "Coolidge", "stabbr": "AZ", "control": 1, "carnegie": 40, "stfips": 4, "fteug": 5129, "group": 5, "fips": 4021, "instnm.y": "Central Arizona College", "md_earn_wne_p10": "28700" }, "geometry": { "type": "Point", "coordinates": [ -111.652501, 32.957092 ] } },
{ "type": "Feature", "id": 62, "properties": { "unitid": 104425, "year": 2011, "instnm.x": "Cochise College", "city": "Douglas", "stabbr": "AZ", "control": 1, "carnegie": 40, "stfips": 4, "fteug": 9378, "group": 5, "fips": 4003, "instnm.y": "Cochise College", "md_earn_wne_p10": "31200" }, "geometry": { "type": "Point", "coordinates": [ -109.690422, 31.365757 ] } },
{ "type": "Feature", "id": 63, "properties": { "unitid": 104577, "year": 2011, "instnm.x": "Eastern Arizona College", "city": "Thatcher", "stabbr": "AZ", "control": 1, "carnegie": 40, "stfips": 4, "fteug": 4475, "group": 5, "fips": 4009, "instnm.y": "Eastern Arizona College", "md_earn_wne_p10": "27800" }, "geometry": { "type": "Point", "coordinates": [ -109.761664, 32.840719 ] } },
{ "type": "Feature", "id": 64, "properties": { "unitid": 104708, "year": 2011, "instnm.x": "Glendale Community College", "city": "Glendale", "stabbr": "AZ", "control": 1, "carnegie": 40, "stfips": 4, "fteug": 12777, "group": 5, "fips": 4013, "instnm.y": "Glendale Community College", "md_earn_wne_p10": "33300" }, "geometry": { "type": "Point", "coordinates": [ -112.188334, 33.567483 ] } },
{ "type": "Feature", "id": 65, "properties": { "unitid": 105145, "year": 2011, "instnm.x": "GateWay Community College", "city": "Phoenix", "stabbr": "AZ", "control": 1, "carnegie": 40, "stfips": 4, "fteug": 3898, "group": 5, "fips": 4013, "instnm.y": "GateWay Community College", "md_earn_wne_p10": "29800" }, "geometry": { "type": "Point", "coordinates": [ -111.996527, 33.4495 ] } },
{ "type": "Feature", "id": 66, "properties": { "unitid": 105154, "year": 2011, "instnm.x": "Mesa Community College", "city": "Mesa", "stabbr": "AZ", "control": 1, "carnegie": 40, "stfips": 4, "fteug": 16097, "group": 5, "fips": 4013, "instnm.y": "Mesa Community College", "md_earn_wne_p10": "36000" }, "geometry": { "type": "Point", "coordinates": [ -111.871494, 33.391256 ] } },
{ "type": "Feature", "id": 67, "properties": { "unitid": 105206, "year": 2011, "instnm.x": "Mohave Community College", "city": "Kingman", "stabbr": "AZ", "control": 1, "carnegie": 40, "stfips": 4, "fteug": 4178, "group": 5, "fips": 4015, "instnm.y": "Mohave Community College", "md_earn_wne_p10": "26700" }, "geometry": { "type": "Point", "coordinates": [ -114.030244, 35.270737 ] } },
{ "type": "Feature", "id": 68, "properties": { "unitid": 105330, "year": 2011, "instnm.x": "Northern Arizona University", "city": "Flagstaff", "stabbr": "AZ", "control": 1, "carnegie": 16, "stfips": 4, "fteug": 19747, "group": 1, "fips": 4005, "instnm.y": "Northern Arizona University", "md_earn_wne_p10": "38800" }, "geometry": { "type": "Point", "coordinates": [ -111.657653, 35.180095 ] } },
{ "type": "Feature", "id": 69, "properties": { "unitid": 105349, "year": 2011, "instnm.x": "Northland Pioneer College", "city": "Holbrook", "stabbr": "AZ", "control": 1, "carnegie": 40, "stfips": 4, "fteug": 2175, "group": 5, "fips": 4017, "instnm.y": "Northland Pioneer College", "md_earn_wne_p10": "22100" }, "geometry": { "type": "Point", "coordinates": [ -110.1316, 34.922221 ] } },
{ "type": "Feature", "id": 70, "properties": { "unitid": 105428, "year": 2011, "instnm.x": "Phoenix College", "city": "Phoenix", "stabbr": "AZ", "control": 1, "carnegie": 40, "stfips": 4, "fteug": 7575, "group": 5, "fips": 4013, "instnm.y": "Phoenix College", "md_earn_wne_p10": "32500" }, "geometry": { "type": "Point", "coordinates": [ -112.088293, 33.481361 ] } },
{ "type": "Feature", "id": 71, "properties": { "unitid": 105525, "year": 2011, "instnm.x": "Pima Community College", "city": "Tucson", "stabbr": "AZ", "control": 1, "carnegie": 40, "stfips": 4, "fteug": 22907, "group": 5, "fips": 4019, "instnm.y": "Pima Community College", "md_earn_wne_p10": "30100" }, "geometry": { "type": "Point", "coordinates": [ -110.985222, 32.226818 ] } },
{ "type": "Feature", "id": 72, "properties": { "unitid": 105589, "year": 2011, "instnm.x": "Prescott College", "city": "Prescott", "stabbr": "AZ", "control": 2, "carnegie": 22, "stfips": 4, "fteug": 845, "group": 4, "fips": 4025, "instnm.y": "Prescott College", "md_earn_wne_p10": "35200" }, "geometry": { "type": "Point", "coordinates": [ -112.476509, 34.5445 ] } },
{ "type": "Feature", "id": 73, "properties": { "unitid": 105668, "year": 2011, "instnm.x": "Rio Salado College", "city": "Tempe", "stabbr": "AZ", "control": 1, "carnegie": 40, "stfips": 4, "fteug": 14379, "group": 5, "fips": 4013, "instnm.y": "Rio Salado College", "md_earn_wne_p10": "36600" }, "geometry": { "type": "Point", "coordinates": [ -111.975201, 33.413138 ] } },
{ "type": "Feature", "id": 74, "properties": { "unitid": 105747, "year": 2011, "instnm.x": "Scottsdale Community College", "city": "Scottsdale", "stabbr": "AZ", "control": 1, "carnegie": 40, "stfips": 4, "fteug": 6397, "group": 5, "fips": 4013, "instnm.y": "Scottsdale Community College", "md_earn_wne_p10": "35700" }, "geometry": { "type": "Point", "coordinates": [ -111.887298, 33.509489 ] } },
{ "type": "Feature", "id": 75, "properties": { "unitid": 105792, "year": 2011, "instnm.x": "South Mountain Community College", "city": "Phoenix", "stabbr": "AZ", "control": 1, "carnegie": 40, "stfips": 4, "fteug": 2953, "group": 5, "fips": 4013, "instnm.y": "South Mountain Community College", "md_earn_wne_p10": "27100" }, "geometry": { "type": "Point", "coordinates": [ -112.057515, 33.381001 ] } },
{ "type": "Feature", "id": 76, "properties": { "unitid": 106148, "year": 2011, "instnm.x": "Yavapai College", "city": "Prescott", "stabbr": "AZ", "control": 1, "carnegie": 40, "stfips": 4, "fteug": 3885, "group": 5, "fips": 4025, "instnm.y": "Yavapai College", "md_earn_wne_p10": "28200" }, "geometry": { "type": "Point", "coordinates": [ -112.454156, 34.547512 ] } },
{ "type": "Feature", "id": 77, "properties": { "unitid": 106245, "year": 2011, "instnm.x": "University of Arkansas at Little Rock", "city": "Little Rock", "stabbr": "AR", "control": 1, "carnegie": 16, "stfips": 5, "fteug": 7499, "group": 1, "fips": 5119, "instnm.y": "University of Arkansas at Little Rock", "md_earn_wne_p10": "34800" }, "geometry": { "type": "Point", "coordinates": [ -92.341835, 34.726644 ] } },
{ "type": "Feature", "id": 78, "properties": { "unitid": 106306, "year": 2011, "instnm.x": "Arkansas Baptist College", "city": "Little Rock", "stabbr": "AR", "control": 2, "carnegie": 31, "stfips": 5, "fteug": 983, "group": 4, "fips": 5119, "instnm.y": "Arkansas Baptist College", "md_earn_wne_p10": "21100" }, "geometry": { "type": "Point", "coordinates": [ -92.290555, 34.734751 ] } },
{ "type": "Feature", "id": 79, "properties": { "unitid": 106342, "year": 2011, "instnm.x": "Lyon College", "city": "Batesville", "stabbr": "AR", "control": 2, "carnegie": 31, "stfips": 5, "fteug": 600, "group": 4, "fips": 5063, "instnm.y": "Lyon College", "md_earn_wne_p10": "37200" }, "geometry": { "type": "Point", "coordinates": [ -91.628115, 35.778934 ] } },
{ "type": "Feature", "id": 80, "properties": { "unitid": 106397, "year": 2011, "instnm.x": "University of Arkansas", "city": "Fayetteville", "stabbr": "AR", "control": 1, "carnegie": 15, "stfips": 5, "fteug": 16476, "group": 1, "fips": 5143, "instnm.y": "University of Arkansas", "md_earn_wne_p10": "43600" }, "geometry": { "type": "Point", "coordinates": [ -94.178214, 36.06153 ] } },
{ "type": "Feature", "id": 81, "properties": { "unitid": 106412, "year": 2011, "instnm.x": "University of Arkansas at Pine Bluff", "city": "Pine Bluff", "stabbr": "AR", "control": 1, "carnegie": 32, "stfips": 5, "fteug": 3023, "group": 2, "fips": 5069, "instnm.y": "University of Arkansas at Pine Bluff", "md_earn_wne_p10": "27400" }, "geometry": { "type": "Point", "coordinates": [ -92.021263, 34.242192 ] } },
{ "type": "Feature", "id": 82, "properties": { "unitid": 106449, "year": 2011, "instnm.x": "Arkansas State University-Beebe", "city": "Beebe", "stabbr": "AR", "control": 1, "carnegie": 40, "stfips": 5, "fteug": 3557, "group": 5, "fips": 5145, "instnm.y": "Arkansas State University-Beebe", "md_earn_wne_p10": "PrivacySuppressed" }, "geometry": { "type": "Point", "coordinates": [ -91.896165, 35.074512 ] } },
{ "type": "Feature", "id": 83, "properties": { "unitid": 106458, "year": 2011, "instnm.x": "Arkansas State University-Main Campus", "city": "Jonesboro", "stabbr": "AR", "control": 1, "carnegie": 21, "stfips": 5, "fteug": 9171, "group": 2, "fips": 5031, "instnm.y": "Arkansas State University-Main Campus", "md_earn_wne_p10": "32700" }, "geometry": { "type": "Point", "coordinates": [ -90.680478, 35.842779 ] } },
{ "type": "Feature", "id": 84, "properties": { "unitid": 106467, "year": 2011, "instnm.x": "Arkansas Tech University", "city": "Russellville", "stabbr": "AR", "control": 1, "carnegie": 21, "stfips": 5, "fteug": 7998, "group": 2, "fips": 5115, "instnm.y": "Arkansas Tech University", "md_earn_wne_p10": "35000" }, "geometry": { "type": "Point", "coordinates": [ -93.13233, 35.295227 ] } },
{ "type": "Feature", "id": 85, "properties": { "unitid": 106485, "year": 2011, "instnm.x": "University of Arkansas at Monticello", "city": "Monticello", "stabbr": "AR", "control": 1, "carnegie": 32, "stfips": 5, "fteug": 3099, "group": 2, "fips": 5043, "instnm.y": "University of Arkansas at Monticello", "md_earn_wne_p10": "33600" }, "geometry": { "type": "Point", "coordinates": [ -91.812971, 33.589788 ] } },
{ "type": "Feature", "id": 86, "properties": { "unitid": 106625, "year": 2011, "instnm.x": "Black River Technical College", "city": "Pocahontas", "stabbr": "AR", "control": 1, "carnegie": 40, "stfips": 5, "fteug": 2080, "group": 5, "fips": 5121, "instnm.y": "Black River Technical College", "md_earn_wne_p10": "26600" }, "geometry": { "type": "Point", "coordinates": [ -90.951033, 36.239793 ] } },
{ "type": "Feature", "id": 87, "properties": { "unitid": 106704, "year": 2011, "instnm.x": "University of Central Arkansas", "city": "Conway", "stabbr": "AR", "control": 1, "carnegie": 21, "stfips": 5, "fteug": 9070, "group": 2, "fips": 5045, "instnm.y": "University of Central Arkansas", "md_earn_wne_p10": "37100" }, "geometry": { "type": "Point", "coordinates": [ -92.45931, 35.078196 ] } },
{ "type": "Feature", "id": 88, "properties": { "unitid": 106795, "year": 2011, "instnm.x": "Cossatot Community College of the University of Arkansas", "city": "De Queen", "stabbr": "AR", "control": 1, "carnegie": 40, "stfips": 5, "fteug": 1082, "group": 5, "fips": 5133, "instnm.y": "Cossatot Community College of the University of Arkansas", "md_earn_wne_p10": "21000" }, "geometry": { "type": "Point", "coordinates": [ -94.3673, 34.043389 ] } },
{ "type": "Feature", "id": 89, "properties": { "unitid": 106883, "year": 2011, "instnm.x": "East Arkansas Community College", "city": "Forrest City", "stabbr": "AR", "control": 1, "carnegie": 40, "stfips": 5, "fteug": 1032, "group": 5, "fips": 5123, "instnm.y": "East Arkansas Community College", "md_earn_wne_p10": "23100" }, "geometry": { "type": "Point", "coordinates": [ -90.767445, 35.039673 ] } },
{ "type": "Feature", "id": 90, "properties": { "unitid": 106980, "year": 2011, "instnm.x": "National Park Community College", "city": "Hot Springs", "stabbr": "AR", "control": 1, "carnegie": 40, "stfips": 5, "fteug": 2769, "group": 5, "fips": 5051, "instnm.y": "National Park Community College", "md_earn_wne_p10": "25000" }, "geometry": { "type": "Point", "coordinates": [ -93.117111, 34.512731 ] } },
{ "type": "Feature", "id": 91, "properties": { "unitid": 106999, "year": 2011, "instnm.x": "University of Arkansas Community College-Batesville", "city": "Batesville", "stabbr": "AR", "control": 1, "carnegie": 40, "stfips": 5, "fteug": 1341, "group": 5, "fips": 5063, "instnm.y": "University of Arkansas Community College-Batesville", "md_earn_wne_p10": "23900" }, "geometry": { "type": "Point", "coordinates": [ -91.616123, 35.79293 ] } },
{ "type": "Feature", "id": 92, "properties": { "unitid": 107044, "year": 2011, "instnm.x": "Harding University", "city": "Searcy", "stabbr": "AR", "control": 2, "carnegie": 22, "stfips": 5, "fteug": 4173, "group": 4, "fips": 5145, "instnm.y": "Harding University", "md_earn_wne_p10": "38600" }, "geometry": { "type": "Point", "coordinates": [ -91.729008, 35.249605 ] } },
{ "type": "Feature", "id": 93, "properties": { "unitid": 107071, "year": 2011, "instnm.x": "Henderson State University", "city": "Arkadelphia", "stabbr": "AR", "control": 1, "carnegie": 21, "stfips": 5, "fteug": 3227, "group": 2, "fips": 5019, "instnm.y": "Henderson State University", "md_earn_wne_p10": "35200" }, "geometry": { "type": "Point", "coordinates": [ -93.060313, 34.127792 ] } },
{ "type": "Feature", "id": 94, "properties": { "unitid": 107080, "year": 2011, "instnm.x": "Hendrix College", "city": "Conway", "stabbr": "AR", "control": 2, "carnegie": 31, "stfips": 5, "fteug": 1481, "group": 4, "fips": 5045, "instnm.y": "Hendrix College", "md_earn_wne_p10": "40500" }, "geometry": { "type": "Point", "coordinates": [ -92.442021, 35.09972 ] } },
{ "type": "Feature", "id": 95, "properties": { "unitid": 107141, "year": 2011, "instnm.x": "John Brown University", "city": "Siloam Springs", "stabbr": "AR", "control": 2, "carnegie": 32, "stfips": 5, "fteug": 1664, "group": 4, "fips": 5007, "instnm.y": "John Brown University", "md_earn_wne_p10": "46200" }, "geometry": { "type": "Point", "coordinates": [ -94.559088, 36.191077 ] } },
{ "type": "Feature", "id": 96, "properties": { "unitid": 107318, "year": 2011, "instnm.x": "Mid-South Community College", "city": "West Memphis", "stabbr": "AR", "control": 1, "carnegie": 40, "stfips": 5, "fteug": 1350, "group": 5, "fips": 5035, "instnm.y": "Mid-South Community College", "md_earn_wne_p10": "21800" }, "geometry": { "type": "Point", "coordinates": [ -90.22285, 35.145736 ] } },
{ "type": "Feature", "id": 97, "properties": { "unitid": 107327, "year": 2011, "instnm.x": "Arkansas Northeastern College", "city": "Blytheville", "stabbr": "AR", "control": 1, "carnegie": 40, "stfips": 5, "fteug": 1417, "group": 5, "fips": 5093, "instnm.y": "Arkansas Northeastern College", "md_earn_wne_p10": "22500" }, "geometry": { "type": "Point", "coordinates": [ -89.922491, 35.897362 ] } },
{ "type": "Feature", "id": 98, "properties": { "unitid": 107460, "year": 2011, "instnm.x": "North Arkansas College", "city": "Harrison", "stabbr": "AR", "control": 1, "carnegie": 40, "stfips": 5, "fteug": 1924, "group": 5, "fips": 5009, "instnm.y": "North Arkansas College", "md_earn_wne_p10": "25500" }, "geometry": { "type": "Point", "coordinates": [ -93.087317, 36.220528 ] } },
{ "type": "Feature", "id": 99, "properties": { "unitid": 107512, "year": 2011, "instnm.x": "Ouachita Baptist University", "city": "Arkadelphia", "stabbr": "AR", "control": 2, "carnegie": 32, "stfips": 5, "fteug": 1468, "group": 4, "fips": 5019, "instnm.y": "Ouachita Baptist University", "md_earn_wne_p10": "37500" }, "geometry": { "type": "Point", "coordinates": [ -93.052442, 34.125045 ] } },
{ "type": "Feature", "id": 100, "properties": { "unitid": 107521, "year": 2011, "instnm.x": "College of the Ouachitas", "city": "Malvern", "stabbr": "AR", "control": 1, "carnegie": 40, "stfips": 5, "fteug": 994, "group": 5, "fips": 5059, "instnm.y": "College of the Ouachitas", "md_earn_wne_p10": "24100" }, "geometry": { "type": "Point", "coordinates": [ -92.821416, 34.378745 ] } },
{ "type": "Feature", "id": 101, "properties": { "unitid": 107549, "year": 2011, "instnm.x": "Ozarka College", "city": "Melbourne", "stabbr": "AR", "control": 1, "carnegie": 40, "stfips": 5, "fteug": 1253, "group": 5, "fips": 5065, "instnm.y": "Ozarka College", "md_earn_wne_p10": "25200" }, "geometry": { "type": "Point", "coordinates": [ -91.896355, 36.053031 ] } },
{ "type": "Feature", "id": 102, "properties": { "unitid": 107558, "year": 2011, "instnm.x": "University of the Ozarks", "city": "Clarksville", "stabbr": "AR", "control": 2, "carnegie": 32, "stfips": 5, "fteug": 630, "group": 4, "fips": 5071, "instnm.y": "University of the Ozarks", "md_earn_wne_p10": "31100" }, "geometry": { "type": "Point", "coordinates": [ -93.467924, 35.477785 ] } },
{ "type": "Feature", "id": 103, "properties": { "unitid": 107585, "year": 2011, "instnm.x": "University of Arkansas Community College-Morrilton", "city": "Morrilton", "stabbr": "AR", "control": 1, "carnegie": 40, "stfips": 5, "fteug": 1978, "group": 5, "fips": 5029, "instnm.y": "University of Arkansas Community College-Morrilton", "md_earn_wne_p10": "25600" }, "geometry": { "type": "Point", "coordinates": [ -92.728507, 35.172136 ] } },
{ "type": "Feature", "id": 104, "properties": { "unitid": 107600, "year": 2011, "instnm.x": "Philander Smith College", "city": "Little Rock", "stabbr": "AR", "control": 2, "carnegie": 32, "stfips": 5, "fteug": 644, "group": 4, "fips": 5119, "instnm.y": "Philander Smith College", "md_earn_wne_p10": "26200" }, "geometry": { "type": "Point", "coordinates": [ -92.28242, 34.73666 ] } },
{ "type": "Feature", "id": 105, "properties": { "unitid": 107619, "year": 2011, "instnm.x": "Phillips Community College of the University of Arkansas", "city": "Helena", "stabbr": "AR", "control": 1, "carnegie": 40, "stfips": 5, "fteug": 1342, "group": 5, "fips": 5107, "instnm.y": "Phillips Community College of the University of Arkansas", "md_earn_wne_p10": "21200" }, "geometry": { "type": "Point", "coordinates": [ -90.617745, 34.544976 ] } },
{ "type": "Feature", "id": 106, "properties": { "unitid": 107637, "year": 2011, "instnm.x": "Southeast Arkansas College", "city": "Pine Bluff", "stabbr": "AR", "control": 1, "carnegie": 40, "stfips": 5, "fteug": 1569, "group": 5, "fips": 5069, "instnm.y": "Southeast Arkansas College", "md_earn_wne_p10": "26700" }, "geometry": { "type": "Point", "coordinates": [ -92.024731, 34.209797 ] } },
{ "type": "Feature", "id": 107, "properties": { "unitid": 107664, "year": 2011, "instnm.x": "Pulaski Technical College", "city": "North Little Rock", "stabbr": "AR", "control": 1, "carnegie": 40, "stfips": 5, "fteug": 8458, "group": 5, "fips": 5119, "instnm.y": "Pulaski Technical College", "md_earn_wne_p10": "28700" }, "geometry": { "type": "Point", "coordinates": [ -92.299729, 34.78243 ] } },
{ "type": "Feature", "id": 108, "properties": { "unitid": 107725, "year": 2011, "instnm.x": "University of Arkansas Community College-Hope", "city": "Hope", "stabbr": "AR", "control": 1, "carnegie": 40, "stfips": 5, "fteug": 1118, "group": 5, "fips": 5057, "instnm.y": "University of Arkansas Community College-Hope", "md_earn_wne_p10": "23000" }, "geometry": { "type": "Point", "coordinates": [ -93.584528, 33.64791 ] } },
{ "type": "Feature", "id": 109, "properties": { "unitid": 107743, "year": 2011, "instnm.x": "Rich Mountain Community College", "city": "Mena", "stabbr": "AR", "control": 1, "carnegie": 40, "stfips": 5, "fteug": 661, "group": 5, "fips": 5113, "instnm.y": "Rich Mountain Community College", "md_earn_wne_p10": "21300" }, "geometry": { "type": "Point", "coordinates": [ -94.2197, 34.590793 ] } },
{ "type": "Feature", "id": 110, "properties": { "unitid": 107877, "year": 2011, "instnm.x": "Williams Baptist College", "city": "Walnut Ridge", "stabbr": "AR", "control": 2, "carnegie": 32, "stfips": 5, "fteug": 554, "group": 4, "fips": 5075, "instnm.y": "Williams Baptist College", "md_earn_wne_p10": "32300" }, "geometry": { "type": "Point", "coordinates": [ -90.939876, 36.126825 ] } },
{ "type": "Feature", "id": 111, "properties": { "unitid": 107974, "year": 2011, "instnm.x": "South Arkansas Community College", "city": "El Dorado", "stabbr": "AR", "control": 1, "carnegie": 40, "stfips": 5, "fteug": 1405, "group": 5, "fips": 5139, "instnm.y": "South Arkansas Community College", "md_earn_wne_p10": "26100" }, "geometry": { "type": "Point", "coordinates": [ -92.666087, 33.209446 ] } },
{ "type": "Feature", "id": 112, "properties": { "unitid": 107983, "year": 2011, "instnm.x": "Southern Arkansas University Main Campus", "city": "Magnolia", "stabbr": "AR", "control": 1, "carnegie": 21, "stfips": 5, "fteug": 2790, "group": 2, "fips": 5027, "instnm.y": "Southern Arkansas University Main Campus", "md_earn_wne_p10": "35900" }, "geometry": { "type": "Point", "coordinates": [ -93.235087, 33.291195 ] } },
{ "type": "Feature", "id": 113, "properties": { "unitid": 107992, "year": 2011, "instnm.x": "Southern Arkansas University Tech", "city": "Camden", "stabbr": "AR", "control": 1, "carnegie": 40, "stfips": 5, "fteug": 1362, "group": 5, "fips": 5103, "instnm.y": "Southern Arkansas University Tech", "md_earn_wne_p10": "26800" }, "geometry": { "type": "Point", "coordinates": [ -92.839009, 33.60388 ] } },
{ "type": "Feature", "id": 114, "properties": { "unitid": 108092, "year": 2011, "instnm.x": "University of Arkansas-Fort Smith", "city": "Fort Smith", "stabbr": "AR", "control": 1, "carnegie": 40, "stfips": 5, "fteug": 6437, "group": 5, "fips": 5131, "instnm.y": "University of Arkansas-Fort Smith", "md_earn_wne_p10": "29900" }, "geometry": { "type": "Point", "coordinates": [ -94.374073, 35.385345 ] } },
{ "type": "Feature", "id": 115, "properties": { "unitid": 108667, "year": 2011, "instnm.x": "College of Alameda", "city": "Alameda", "stabbr": "CA", "control": 1, "carnegie": 40, "stfips": 6, "fteug": 3789, "group": 5, "fips": 6001, "instnm.y": "College of Alameda", "md_earn_wne_p10": "34300" }, "geometry": { "type": "Point", "coordinates": [ -122.279261, 37.78239 ] } },
{ "type": "Feature", "id": 116, "properties": { "unitid": 108807, "year": 2011, "instnm.x": "Allan Hancock College", "city": "Santa Maria", "stabbr": "CA", "control": 1, "carnegie": 40, "stfips": 6, "fteug": 7323, "group": 5, "fips": 6083, "instnm.y": "Allan Hancock College", "md_earn_wne_p10": "29500" }, "geometry": { "type": "Point", "coordinates": [ -120.421486, 34.942979 ] } },
{ "type": "Feature", "id": 117, "properties": { "unitid": 109208, "year": 2011, "instnm.x": "American River College", "city": "Sacramento", "stabbr": "CA", "control": 1, "carnegie": 40, "stfips": 6, "fteug": 18649, "group": 5, "fips": 6067, "instnm.y": "American River College", "md_earn_wne_p10": "27600" }, "geometry": { "type": "Point", "coordinates": [ -121.346012, 38.649734 ] } },
{ "type": "Feature", "id": 118, "properties": { "unitid": 109350, "year": 2011, "instnm.x": "Antelope Valley College", "city": "Lancaster", "stabbr": "CA", "control": 1, "carnegie": 40, "stfips": 6, "fteug": 6885, "group": 5, "fips": 6037, "instnm.y": "Antelope Valley College", "md_earn_wne_p10": "27000" }, "geometry": { "type": "Point", "coordinates": [ -118.186166, 34.676207 ] } },
{ "type": "Feature", "id": 119, "properties": { "unitid": 109785, "year": 2011, "instnm.x": "Azusa Pacific University", "city": "Azusa", "stabbr": "CA", "control": 2, "carnegie": 21, "stfips": 6, "fteug": 5812, "group": 4, "fips": 6037, "instnm.y": "Azusa Pacific University", "md_earn_wne_p10": "49000" }, "geometry": { "type": "Point", "coordinates": [ -117.88795, 34.130865 ] } },
{ "type": "Feature", "id": 120, "properties": { "unitid": 109819, "year": 2011, "instnm.x": "Bakersfield College", "city": "Bakersfield", "stabbr": "CA", "control": 1, "carnegie": 40, "stfips": 6, "fteug": 11841, "group": 5, "fips": 6029, "instnm.y": "Bakersfield College", "md_earn_wne_p10": "29700" }, "geometry": { "type": "Point", "coordinates": [ -118.973491, 35.4108 ] } },
{ "type": "Feature", "id": 121, "properties": { "unitid": 109907, "year": 2011, "instnm.x": "Barstow Community College", "city": "Barstow", "stabbr": "CA", "control": 1, "carnegie": 40, "stfips": 6, "fteug": 3240, "group": 5, "fips": 6071, "instnm.y": "Barstow Community College", "md_earn_wne_p10": "31800" }, "geometry": { "type": "Point", "coordinates": [ -117.02523, 34.871451 ] } },
{ "type": "Feature", "id": 122, "properties": { "unitid": 110051, "year": 2011, "instnm.x": "Bethany University", "city": "Scotts Valley", "stabbr": "CA", "control": 2, "carnegie": 32, "stfips": 6, "fteug": null, "group": 4, "fips": 6087, "instnm.y": null, "md_earn_wne_p10": null }, "geometry": { "type": "Point", "coordinates": [ -121.994216, 37.074873 ] } },
{ "type": "Feature", "id": 123, "properties": { "unitid": 110097, "year": 2011, "instnm.x": "Biola University", "city": "La Mirada", "stabbr": "CA", "control": 2, "carnegie": 16, "stfips": 6, "fteug": 4274, "group": 3, "fips": 6037, "instnm.y": "Biola University", "md_earn_wne_p10": "40700" }, "geometry": { "type": "Point", "coordinates": [ -118.017342, 33.904823 ] } },
{ "type": "Feature", "id": 124, "properties": { "unitid": 110246, "year": 2011, "instnm.x": "Butte College", "city": "Oroville", "stabbr": "CA", "control": 1, "carnegie": 40, "stfips": 6, "fteug": 9780, "group": 5, "fips": 6007, "instnm.y": "Butte College", "md_earn_wne_p10": "29800" }, "geometry": { "type": "Point", "coordinates": [ -121.644691, 39.649116 ] } },
{ "type": "Feature", "id": 125, "properties": { "unitid": 110334, "year": 2011, "instnm.x": "Cabrillo College", "city": "Aptos", "stabbr": "CA", "control": 1, "carnegie": 40, "stfips": 6, "fteug": 8275, "group": 5, "fips": 6087, "instnm.y": "Cabrillo College", "md_earn_wne_p10": "32100" }, "geometry": { "type": "Point", "coordinates": [ -121.927926, 36.9891 ] } },
{ "type": "Feature", "id": 126, "properties": { "unitid": 110361, "year": 2011, "instnm.x": "California Baptist University", "city": "Riverside", "stabbr": "CA", "control": 2, "carnegie": 21, "stfips": 6, "fteug": 3761, "group": 4, "fips": 6065, "instnm.y": "California Baptist University", "md_earn_wne_p10": "41800" }, "geometry": { "type": "Point", "coordinates": [ -117.42587, 33.928569 ] } },
{ "type": "Feature", "id": 127, "properties": { "unitid": 110404, "year": 2011, "instnm.x": "California Institute of Technology", "city": "Pasadena", "stabbr": "CA", "control": 2, "carnegie": 15, "stfips": 6, "fteug": 967, "group": 3, "fips": 6037, "instnm.y": "California Institute of Technology", "md_earn_wne_p10": "74000" }, "geometry": { "type": "Point", "coordinates": [ -118.12574, 34.139275 ] } },
{ "type": "Feature", "id": 128, "properties": { "unitid": 110413, "year": 2011, "instnm.x": "California Lutheran University", "city": "Thousand Oaks", "stabbr": "CA", "control": 2, "carnegie": 21, "stfips": 6, "fteug": 2502, "group": 4, "fips": 6111, "instnm.y": "California Lutheran University", "md_earn_wne_p10": "52900" }, "geometry": { "type": "Point", "coordinates": [ -118.879467, 34.225551 ] } },
{ "type": "Feature", "id": 129, "properties": { "unitid": 110422, "year": 2011, "instnm.x": "California Polytechnic State University-San Luis Obispo", "city": "San Luis Obispo", "stabbr": "CA", "control": 1, "carnegie": 21, "stfips": 6, "fteug": 16306, "group": 2, "fips": 6079, "instnm.y": "California Polytechnic State University-San Luis Obispo", "md_earn_wne_p10": "60900" }, "geometry": { "type": "Point", "coordinates": [ -120.65856, 35.29889 ] } },
{ "type": "Feature", "id": 130, "properties": { "unitid": 110486, "year": 2011, "instnm.x": "California State University-Bakersfield", "city": "Bakersfield", "stabbr": "CA", "control": 1, "carnegie": 21, "stfips": 6, "fteug": 6407, "group": 2, "fips": 6029, "instnm.y": "California State University-Bakersfield", "md_earn_wne_p10": "48100" }, "geometry": { "type": "Point", "coordinates": [ -119.104711, 35.350005 ] } },
{ "type": "Feature", "id": 131, "properties": { "unitid": 110495, "year": 2011, "instnm.x": "California State University-Stanislaus", "city": "Turlock", "stabbr": "CA", "control": 1, "carnegie": 21, "stfips": 6, "fteug": 5950, "group": 2, "fips": 6099, "instnm.y": "California State University-Stanislaus", "md_earn_wne_p10": "44900" }, "geometry": { "type": "Point", "coordinates": [ -120.852511, 37.52577 ] } },
{ "type": "Feature", "id": 132, "properties": { "unitid": 110510, "year": 2011, "instnm.x": "California State University-San Bernardino", "city": "San Bernardino", "stabbr": "CA", "control": 1, "carnegie": 21, "stfips": 6, "fteug": 12568, "group": 2, "fips": 6071, "instnm.y": "California State University-San Bernardino", "md_earn_wne_p10": "45500" }, "geometry": { "type": "Point", "coordinates": [ -117.322508, 34.182987 ] } },
{ "type": "Feature", "id": 133, "properties": { "unitid": 110529, "year": 2011, "instnm.x": "California State Polytechnic University-Pomona", "city": "Pomona", "stabbr": "CA", "control": 1, "carnegie": 21, "stfips": 6, "fteug": 16388, "group": 2, "fips": 6037, "instnm.y": "California State Polytechnic University-Pomona", "md_earn_wne_p10": "52000" }, "geometry": { "type": "Point", "coordinates": [ -117.819019, 34.054273 ] } },
{ "type": "Feature", "id": 134, "properties": { "unitid": 110538, "year": 2011, "instnm.x": "California State University-Chico", "city": "Chico", "stabbr": "CA", "control": 1, "carnegie": 21, "stfips": 6, "fteug": 13994, "group": 2, "fips": 6007, "instnm.y": "California State University-Chico", "md_earn_wne_p10": "45100" }, "geometry": { "type": "Point", "coordinates": [ -121.846333, 39.728003 ] } },
{ "type": "Feature", "id": 135, "properties": { "unitid": 110547, "year": 2011, "instnm.x": "California State University-Dominguez Hills", "city": "Carson", "stabbr": "CA", "control": 1, "carnegie": 21, "stfips": 6, "fteug": 8521, "group": 2, "fips": 6037, "instnm.y": "California State University-Dominguez Hills", "md_earn_wne_p10": "42800" }, "geometry": { "type": "Point", "coordinates": [ -118.259316, 33.86524 ] } },
{ "type": "Feature", "id": 136, "properties": { "unitid": 110556, "year": 2011, "instnm.x": "California State University-Fresno", "city": "Fresno", "stabbr": "CA", "control": 1, "carnegie": 21, "stfips": 6, "fteug": 16257, "group": 2, "fips": 6019, "instnm.y": "California State University-Fresno", "md_earn_wne_p10": "43200" }, "geometry": { "type": "Point", "coordinates": [ -119.748258, 36.814477 ] } },
{ "type": "Feature", "id": 137, "properties": { "unitid": 110565, "year": 2011, "instnm.x": "California State University-Fullerton", "city": "Fullerton", "stabbr": "CA", "control": 1, "carnegie": 21, "stfips": 6, "fteug": 25265, "group": 2, "fips": 6059, "instnm.y": "California State University-Fullerton", "md_earn_wne_p10": "46500" }, "geometry": { "type": "Point", "coordinates": [ -117.885349, 33.883627 ] } },
{ "type": "Feature", "id": 138, "properties": { "unitid": 110574, "year": 2011, "instnm.x": "California State University-East Bay", "city": "Hayward", "stabbr": "CA", "control": 1, "carnegie": 21, "stfips": 6, "fteug": 9323, "group": 2, "fips": 6001, "instnm.y": "California State University-East Bay", "md_earn_wne_p10": "51300" }, "geometry": { "type": "Point", "coordinates": [ -122.058073, 37.65707 ] } },
{ "type": "Feature", "id": 139, "properties": { "unitid": 110583, "year": 2011, "instnm.x": "California State University-Long Beach", "city": "Long Beach", "stabbr": "CA", "control": 1, "carnegie": 21, "stfips": 6, "fteug": 24514, "group": 2, "fips": 6037, "instnm.y": "California State University-Long Beach", "md_earn_wne_p10": "46900" }, "geometry": { "type": "Point", "coordinates": [ -118.1123, 33.782752 ] } },
{ "type": "Feature", "id": 140, "properties": { "unitid": 110592, "year": 2011, "instnm.x": "California State University-Los Angeles", "city": "Los Angeles", "stabbr": "CA", "control": 1, "carnegie": 21, "stfips": 6, "fteug": 13852, "group": 2, "fips": 6037, "instnm.y": "California State University-Los Angeles", "md_earn_wne_p10": "44900" }, "geometry": { "type": "Point", "coordinates": [ -118.168965, 34.066927 ] } },
{ "type": "Feature", "id": 141, "properties": { "unitid": 110608, "year": 2011, "instnm.x": "California State University-Northridge", "city": "Northridge", "stabbr": "CA", "control": 1, "carnegie": 21, "stfips": 6, "fteug": 23803, "group": 2, "fips": 6037, "instnm.y": "California State University-Northridge", "md_earn_wne_p10": "44200" }, "geometry": { "type": "Point", "coordinates": [ -118.526817, 34.23671 ] } },
{ "type": "Feature", "id": 142, "properties": { "unitid": 110617, "year": 2011, "instnm.x": "California State University-Sacramento", "city": "Sacramento", "stabbr": "CA", "control": 1, "carnegie": 21, "stfips": 6, "fteug": 19889, "group": 2, "fips": 6067, "instnm.y": "California State University-Sacramento", "md_earn_wne_p10": "46500" }, "geometry": { "type": "Point", "coordinates": [ -121.42194, 38.55745 ] } },
{ "type": "Feature", "id": 143, "properties": { "unitid": 110635, "year": 2011, "instnm.x": "University of California-Berkeley", "city": "Berkeley", "stabbr": "CA", "control": 1, "carnegie": 15, "stfips": 6, "fteug": 27307, "group": 1, "fips": 6001, "instnm.y": "University of California-Berkeley", "md_earn_wne_p10": "62700" }, "geometry": { "type": "Point", "coordinates": [ -122.2604, 37.87152 ] } },
{ "type": "Feature", "id": 144, "properties": { "unitid": 110644, "year": 2011, "instnm.x": "University of California-Davis", "city": "Davis", "stabbr": "CA", "control": 1, "carnegie": 15, "stfips": 6, "fteug": 24991, "group": 1, "fips": 6113, "instnm.y": "University of California-Davis", "md_earn_wne_p10": "57100" }, "geometry": { "type": "Point", "coordinates": [ -121.751958, 38.539895 ] } },
{ "type": "Feature", "id": 145, "properties": { "unitid": 110653, "year": 2011, "instnm.x": "University of California-Irvine", "city": "Irvine", "stabbr": "CA", "control": 1, "carnegie": 15, "stfips": 6, "fteug": 23317, "group": 1, "fips": 6059, "instnm.y": "University of California-Irvine", "md_earn_wne_p10": "55800" }, "geometry": { "type": "Point", "coordinates": [ -117.768639, 33.667002 ] } },
{ "type": "Feature", "id": 146, "properties": { "unitid": 110662, "year": 2011, "instnm.x": "University of California-Los Angeles", "city": "Los Angeles", "stabbr": "CA", "control": 1, "carnegie": 15, "stfips": 6, "fteug": 26561, "group": 1, "fips": 6037, "instnm.y": "University of California-Los Angeles", "md_earn_wne_p10": "59200" }, "geometry": { "type": "Point", "coordinates": [ -118.443901, 34.068892 ] } },
{ "type": "Feature", "id": 147, "properties": { "unitid": 110671, "year": 2011, "instnm.x": "University of California-Riverside", "city": "Riverside", "stabbr": "CA", "control": 1, "carnegie": 15, "stfips": 6, "fteug": 18015, "group": 1, "fips": 6065, "instnm.y": "University of California-Riverside", "md_earn_wne_p10": "48700" }, "geometry": { "type": "Point", "coordinates": [ -117.331098, 33.97588 ] } },
{ "type": "Feature", "id": 148, "properties": { "unitid": 110680, "year": 2011, "instnm.x": "University of California-San Diego", "city": "La Jolla", "stabbr": "CA", "control": 1, "carnegie": 15, "stfips": 6, "fteug": 24709, "group": 1, "fips": 6073, "instnm.y": "University of California-San Diego", "md_earn_wne_p10": "59600" }, "geometry": { "type": "Point", "coordinates": [ -117.237793, 32.876598 ] } },
{ "type": "Feature", "id": 149, "properties": { "unitid": 110699, "year": 2011, "instnm.x": "University of California-San Francisco", "city": "San Francisco", "stabbr": "CA", "control": 1, "carnegie": 16, "stfips": 6, "fteug": null, "group": 1, "fips": 6075, "instnm.y": "University of California-San Francisco", "md_earn_wne_p10": "118900" }, "geometry": { "type": "Point", "coordinates": [ -122.458049, 37.762736 ] } },
{ "type": "Feature", "id": 150, "properties": { "unitid": 110705, "year": 2011, "instnm.x": "University of California-Santa Barbara", "city": "Santa Barbara", "stabbr": "CA", "control": 1, "carnegie": 15, "stfips": 6, "fteug": 20070, "group": 1, "fips": 6083, "instnm.y": "University of California-Santa Barbara", "md_earn_wne_p10": "52000" }, "geometry": { "type": "Point", "coordinates": [ -119.848071, 34.415461 ] } },
{ "type": "Feature", "id": 151, "properties": { "unitid": 110714, "year": 2011, "instnm.x": "University of California-Santa Cruz", "city": "Santa Cruz", "stabbr": "CA", "control": 1, "carnegie": 15, "stfips": 6, "fteug": 15993, "group": 1, "fips": 6087, "instnm.y": "University of California-Santa Cruz", "md_earn_wne_p10": "44600" }, "geometry": { "type": "Point", "coordinates": [ -122.067993, 36.997258 ] } },
{ "type": "Feature", "id": 152, "properties": { "unitid": 111434, "year": 2011, "instnm.x": "Canada College", "city": "Redwood City", "stabbr": "CA", "control": 1, "carnegie": 40, "stfips": 6, "fteug": 3328, "group": 5, "fips": 6081, "instnm.y": "Canada College", "md_earn_wne_p10": "29300" }, "geometry": { "type": "Point", "coordinates": [ -122.265549, 37.447365 ] } },
{ "type": "Feature", "id": 153, "properties": { "unitid": 111461, "year": 2011, "instnm.x": "College of the Canyons", "city": "Santa Clarita", "stabbr": "CA", "control": 1, "carnegie": 40, "stfips": 6, "fteug": 11525, "group": 5, "fips": 6037, "instnm.y": "College of the Canyons", "md_earn_wne_p10": "34200" }, "geometry": { "type": "Point", "coordinates": [ -118.569524, 34.403121 ] } },
{ "type": "Feature", "id": 154, "properties": { "unitid": 111887, "year": 2011, "instnm.x": "Cerritos College", "city": "Norwalk", "stabbr": "CA", "control": 1, "carnegie": 40, "stfips": 6, "fteug": 13805, "group": 5, "fips": 6037, "instnm.y": "Cerritos College", "md_earn_wne_p10": "31400" }, "geometry": { "type": "Point", "coordinates": [ -118.097263, 33.88584 ] } },
{ "type": "Feature", "id": 155, "properties": { "unitid": 111896, "year": 2011, "instnm.x": "Cerro Coso Community College", "city": "Ridgecrest", "stabbr": "CA", "control": 1, "carnegie": 40, "stfips": 6, "fteug": 3138, "group": 5, "fips": 6029, "instnm.y": "Cerro Coso Community College", "md_earn_wne_p10": "24900" }, "geometry": { "type": "Point", "coordinates": [ -117.667706, 35.567763 ] } },
{ "type": "Feature", "id": 156, "properties": { "unitid": 111920, "year": 2011, "instnm.x": "Chabot College", "city": "Hayward", "stabbr": "CA", "control": 1, "carnegie": 40, "stfips": 6, "fteug": 8513, "group": 5, "fips": 6001, "instnm.y": "Chabot College", "md_earn_wne_p10": "32900" }, "geometry": { "type": "Point", "coordinates": [ -122.106969, 37.642513 ] } },
{ "type": "Feature", "id": 157, "properties": { "unitid": 111939, "year": 2011, "instnm.x": "Chaffey College", "city": "Rancho Cucamonga", "stabbr": "CA", "control": 1, "carnegie": 40, "stfips": 6, "fteug": 11968, "group": 5, "fips": 6071, "instnm.y": "Chaffey College", "md_earn_wne_p10": "28100" }, "geometry": { "type": "Point", "coordinates": [ -117.573086, 34.14705 ] } },
{ "type": "Feature", "id": 158, "properties": { "unitid": 111948, "year": 2011, "instnm.x": "Chapman University", "city": "Orange", "stabbr": "CA", "control": 2, "carnegie": 21, "stfips": 6, "fteug": 5183, "group": 4, "fips": 6059, "instnm.y": "Chapman University", "md_earn_wne_p10": "51800" }, "geometry": { "type": "Point", "coordinates": [ -117.851481, 33.793678 ] } },
{ "type": "Feature", "id": 159, "properties": { "unitid": 112075, "year": 2011, "instnm.x": "Concordia University-Irvine", "city": "Irvine", "stabbr": "CA", "control": 2, "carnegie": 22, "stfips": 6, "fteug": 1738, "group": 4, "fips": 6059, "instnm.y": "Concordia University-Irvine", "md_earn_wne_p10": "42100" }, "geometry": { "type": "Point", "coordinates": [ -117.81063, 33.6535 ] } },
{ "type": "Feature", "id": 160, "properties": { "unitid": 112084, "year": 2011, "instnm.x": "San Diego Christian College", "city": "El Cajon", "stabbr": "CA", "control": 2, "carnegie": 31, "stfips": 6, "fteug": 488, "group": 4, "fips": 6073, "instnm.y": "San Diego Christian College", "md_earn_wne_p10": "34400" }, "geometry": { "type": "Point", "coordinates": [ -116.903073, 32.799999 ] } },
{ "type": "Feature", "id": 161, "properties": { "unitid": 112172, "year": 2011, "instnm.x": "Citrus College", "city": "Glendora", "stabbr": "CA", "control": 1, "carnegie": 40, "stfips": 6, "fteug": 8825, "group": 5, "fips": 6037, "instnm.y": "Citrus College", "md_earn_wne_p10": "29100" }, "geometry": { "type": "Point", "coordinates": [ -117.885266, 34.135487 ] } },
{ "type": "Feature", "id": 162, "properties": { "unitid": 112190, "year": 2011, "instnm.x": "City College of San Francisco", "city": "San Francisco", "stabbr": "CA", "control": 1, "carnegie": 40, "stfips": 6, "fteug": 18698, "group": 5, "fips": 6075, "instnm.y": "City College of San Francisco", "md_earn_wne_p10": "36900" }, "geometry": { "type": "Point", "coordinates": [ -122.451155, 37.725953 ] } },
{ "type": "Feature", "id": 163, "properties": { "unitid": 112251, "year": 2011, "instnm.x": "Claremont Graduate University", "city": "Claremont", "stabbr": "CA", "control": 2, "carnegie": 15, "stfips": 6, "fteug": null, "group": 3, "fips": 6037, "instnm.y": "Claremont Graduate University", "md_earn_wne_p10": "60800" }, "geometry": { "type": "Point", "coordinates": [ -117.712394, 34.103778 ] } },
{ "type": "Feature", "id": 164, "properties": { "unitid": 112260, "year": 2011, "instnm.x": "Claremont McKenna College", "city": "Claremont", "stabbr": "CA", "control": 2, "carnegie": 31, "stfips": 6, "fteug": 1239, "group": 4, "fips": 6037, "instnm.y": "Claremont McKenna College", "md_earn_wne_p10": "63600" }, "geometry": { "type": "Point", "coordinates": [ -117.706593, 34.102323 ] } },
{ "type": "Feature", "id": 165, "properties": { "unitid": 112385, "year": 2011, "instnm.x": "Coastline Community College", "city": "Fountain Valley", "stabbr": "CA", "control": 1, "carnegie": 40, "stfips": 6, "fteug": 4981, "group": 5, "fips": 6059, "instnm.y": "Coastline Community College", "md_earn_wne_p10": "30500" }, "geometry": { "type": "Point", "coordinates": [ -117.861844, 33.609771 ] } },
{ "type": "Feature", "id": 166, "properties": { "unitid": 112561, "year": 2011, "instnm.x": "Columbia College", "city": "Sonora", "stabbr": "CA", "control": 1, "carnegie": 40, "stfips": 6, "fteug": 1819, "group": 5, "fips": 6109, "instnm.y": "Columbia College", "md_earn_wne_p10": "23000" }, "geometry": { "type": "Point", "coordinates": [ -120.387603, 38.030361 ] } },
{ "type": "Feature", "id": 167, "properties": { "unitid": 112686, "year": 2011, "instnm.x": "El Camino College-Compton Center", "city": "Compton", "stabbr": "CA", "control": 1, "carnegie": 40, "stfips": 6, "fteug": 5230, "group": 5, "fips": 6037, "instnm.y": "El Camino College-Compton Center", "md_earn_wne_p10": "30200" }, "geometry": { "type": "Point", "coordinates": [ -118.209186, 33.876665 ] } },
{ "type": "Feature", "id": 168, "properties": { "unitid": 112826, "year": 2011, "instnm.x": "Contra Costa College", "city": "San Pablo", "stabbr": "CA", "control": 1, "carnegie": 40, "stfips": 6, "fteug": 4908, "group": 5, "fips": 6013, "instnm.y": "Contra Costa College", "md_earn_wne_p10": "29000" }, "geometry": { "type": "Point", "coordinates": [ -122.342386, 37.968623 ] } },
{ "type": "Feature", "id": 169, "properties": { "unitid": 113096, "year": 2011, "instnm.x": "Cosumnes River College", "city": "Sacramento", "stabbr": "CA", "control": 1, "carnegie": 40, "stfips": 6, "fteug": 8668, "group": 5, "fips": 6067, "instnm.y": "Cosumnes River College", "md_earn_wne_p10": "28000" }, "geometry": { "type": "Point", "coordinates": [ -121.422971, 38.453836 ] } },
{ "type": "Feature", "id": 170, "properties": { "unitid": 113111, "year": 2011, "instnm.x": "Crafton Hills College", "city": "Yucaipa", "stabbr": "CA", "control": 1, "carnegie": 40, "stfips": 6, "fteug": 3828, "group": 5, "fips": 6071, "instnm.y": "Crafton Hills College", "md_earn_wne_p10": "30500" }, "geometry": { "type": "Point", "coordinates": [ -117.100826, 34.038513 ] } },
{ "type": "Feature", "id": 171, "properties": { "unitid": 113193, "year": 2011, "instnm.x": "Cuesta College", "city": "San Luis Obispo", "stabbr": "CA", "control": 1, "carnegie": 40, "stfips": 6, "fteug": 7110, "group": 5, "fips": 6079, "instnm.y": "Cuesta College", "md_earn_wne_p10": "32900" }, "geometry": { "type": "Point", "coordinates": [ -120.741624, 35.329859 ] } },
{ "type": "Feature", "id": 172, "properties": { "unitid": 113218, "year": 2011, "instnm.x": "Cuyamaca College", "city": "El Cajon", "stabbr": "CA", "control": 1, "carnegie": 40, "stfips": 6, "fteug": 4888, "group": 5, "fips": 6073, "instnm.y": "Cuyamaca College", "md_earn_wne_p10": "26800" }, "geometry": { "type": "Point", "coordinates": [ -116.941044, 32.743072 ] } },
{ "type": "Feature", "id": 173, "properties": { "unitid": 113236, "year": 2011, "instnm.x": "Cypress College", "city": "Cypress", "stabbr": "CA", "control": 1, "carnegie": 40, "stfips": 6, "fteug": 9557, "group": 5, "fips": 6059, "instnm.y": "Cypress College", "md_earn_wne_p10": "33000" }, "geometry": { "type": "Point", "coordinates": [ -118.023889, 33.827625 ] } },
{ "type": "Feature", "id": 174, "properties": { "unitid": 113333, "year": 2011, "instnm.x": "De Anza College", "city": "Cupertino", "stabbr": "CA", "control": 1, "carnegie": 40, "stfips": 6, "fteug": 16956, "group": 5, "fips": 6085, "instnm.y": "De Anza College", "md_earn_wne_p10": "43600" }, "geometry": { "type": "Point", "coordinates": [ -122.045365, 37.319176 ] } },
{ "type": "Feature", "id": 175, "properties": { "unitid": 113573, "year": 2011, "instnm.x": "College of the Desert", "city": "Palm Desert", "stabbr": "CA", "control": 1, "carnegie": 40, "stfips": 6, "fteug": 6098, "group": 5, "fips": 6065, "instnm.y": "College of the Desert", "md_earn_wne_p10": "29700" }, "geometry": { "type": "Point", "coordinates": [ -116.38761, 33.732484 ] } },
{ "type": "Feature", "id": 176, "properties": { "unitid": 113634, "year": 2011, "instnm.x": "Diablo Valley College", "city": "Pleasant Hill", "stabbr": "CA", "control": 1, "carnegie": 40, "stfips": 6, "fteug": 13164, "group": 5, "fips": 6013, "instnm.y": "Diablo Valley College", "md_earn_wne_p10": "38300" }, "geometry": { "type": "Point", "coordinates": [ -122.069861, 37.968035 ] } },
{ "type": "Feature", "id": 177, "properties": { "unitid": 113698, "year": 2011, "instnm.x": "Dominican University of California", "city": "San Rafael", "stabbr": "CA", "control": 2, "carnegie": 21, "stfips": 6, "fteug": 1452, "group": 4, "fips": 6041, "instnm.y": "Dominican University of California", "md_earn_wne_p10": "51400" }, "geometry": { "type": "Point", "coordinates": [ -122.514654, 37.980014 ] } },
{ "type": "Feature", "id": 178, "properties": { "unitid": 113856, "year": 2011, "instnm.x": "East Los Angeles College", "city": "Monterey Park", "stabbr": "CA", "control": 1, "carnegie": 40, "stfips": 6, "fteug": 17421, "group": 5, "fips": 6037, "instnm.y": "East Los Angeles College", "md_earn_wne_p10": "31600" }, "geometry": { "type": "Point", "coordinates": [ -118.148384, 34.039205 ] } },
{ "type": "Feature", "id": 179, "properties": { "unitid": 113980, "year": 2011, "instnm.x": "El Camino Community College District", "city": "Torrance", "stabbr": "CA", "control": 1, "carnegie": 40, "stfips": 6, "fteug": 15024, "group": 5, "fips": 6037, "instnm.y": "El Camino Community College District", "md_earn_wne_p10": "30200" }, "geometry": { "type": "Point", "coordinates": [ -118.326623, 33.885586 ] } },
{ "type": "Feature", "id": 180, "properties": { "unitid": 114266, "year": 2011, "instnm.x": "Evergreen Valley College", "city": "San Jose", "stabbr": "CA", "control": 1, "carnegie": 40, "stfips": 6, "fteug": 6100, "group": 5, "fips": 6085, "instnm.y": "Evergreen Valley College", "md_earn_wne_p10": "32700" }, "geometry": { "type": "Point", "coordinates": [ -121.766685, 37.301736 ] } },
{ "type": "Feature", "id": 181, "properties": { "unitid": 114433, "year": 2011, "instnm.x": "Feather River Community College District", "city": "Quincy", "stabbr": "CA", "control": 1, "carnegie": 40, "stfips": 6, "fteug": 1092, "group": 5, "fips": 6063, "instnm.y": "Feather River Community College District", "md_earn_wne_p10": "26900" }, "geometry": { "type": "Point", "coordinates": [ -120.970877, 39.952395 ] } },
{ "type": "Feature", "id": 182, "properties": { "unitid": 114716, "year": 2011, "instnm.x": "Foothill College", "city": "Los Altos Hills", "stabbr": "CA", "control": 1, "carnegie": 40, "stfips": 6, "fteug": 10070, "group": 5, "fips": 6085, "instnm.y": "Foothill College", "md_earn_wne_p10": "47600" }, "geometry": { "type": "Point", "coordinates": [ -122.12833, 37.361104 ] } },
{ "type": "Feature", "id": 183, "properties": { "unitid": 114789, "year": 2011, "instnm.x": "Fresno City College", "city": "Fresno", "stabbr": "CA", "control": 1, "carnegie": 40, "stfips": 6, "fteug": 14394, "group": 5, "fips": 6019, "instnm.y": "Fresno City College", "md_earn_wne_p10": "26000" }, "geometry": { "type": "Point", "coordinates": [ -119.795129, 36.767516 ] } },
{ "type": "Feature", "id": 184, "properties": { "unitid": 114813, "year": 2011, "instnm.x": "Fresno Pacific University", "city": "Fresno", "stabbr": "CA", "control": 2, "carnegie": 21, "stfips": 6, "fteug": 2347, "group": 4, "fips": 6019, "instnm.y": "Fresno Pacific University", "md_earn_wne_p10": "39700" }, "geometry": { "type": "Point", "coordinates": [ -119.731953, 36.725279 ] } },
{ "type": "Feature", "id": 185, "properties": { "unitid": 114859, "year": 2011, "instnm.x": "Fullerton College", "city": "Fullerton", "stabbr": "CA", "control": 1, "carnegie": 40, "stfips": 6, "fteug": 14814, "group": 5, "fips": 6059, "instnm.y": "Fullerton College", "md_earn_wne_p10": "32700" }, "geometry": { "type": "Point", "coordinates": [ -117.916986, 33.876794 ] } },
{ "type": "Feature", "id": 186, "properties": { "unitid": 114938, "year": 2011, "instnm.x": "Gavilan College", "city": "Gilroy", "stabbr": "CA", "control": 1, "carnegie": 40, "stfips": 6, "fteug": 4214, "group": 5, "fips": 6085, "instnm.y": "Gavilan College", "md_earn_wne_p10": "26900" }, "geometry": { "type": "Point", "coordinates": [ -121.568174, 36.973274 ] } },
{ "type": "Feature", "id": 187, "properties": { "unitid": 115001, "year": 2011, "instnm.x": "Glendale Community College", "city": "Glendale", "stabbr": "CA", "control": 1, "carnegie": 40, "stfips": 6, "fteug": 12569, "group": 5, "fips": 6037, "instnm.y": "Glendale Community College", "md_earn_wne_p10": "30800" }, "geometry": { "type": "Point", "coordinates": [ -118.228251, 34.166422 ] } },
{ "type": "Feature", "id": 188, "properties": { "unitid": 115126, "year": 2011, "instnm.x": "Golden West College", "city": "Huntington Beach", "stabbr": "CA", "control": 1, "carnegie": 40, "stfips": 6, "fteug": 8320, "group": 5, "fips": 6059, "instnm.y": "Golden West College", "md_earn_wne_p10": "31700" }, "geometry": { "type": "Point", "coordinates": [ -118.003035, 33.733775 ] } },
{ "type": "Feature", "id": 189, "properties": { "unitid": 115296, "year": 2011, "instnm.x": "Grossmont College", "city": "El Cajon", "stabbr": "CA", "control": 1, "carnegie": 40, "stfips": 6, "fteug": 12124, "group": 5, "fips": 6073, "instnm.y": "Grossmont College", "md_earn_wne_p10": "32300" }, "geometry": { "type": "Point", "coordinates": [ -117.007292, 32.816077 ] } },
{ "type": "Feature", "id": 190, "properties": { "unitid": 115393, "year": 2011, "instnm.x": "Hartnell College", "city": "Salinas", "stabbr": "CA", "control": 1, "carnegie": 40, "stfips": 6, "fteug": 5271, "group": 5, "fips": 6053, "instnm.y": "Hartnell College", "md_earn_wne_p10": "29500" }, "geometry": { "type": "Point", "coordinates": [ -121.668763, 36.673052 ] } },
{ "type": "Feature", "id": 191, "properties": { "unitid": 115409, "year": 2011, "instnm.x": "Harvey Mudd College", "city": "Claremont", "stabbr": "CA", "control": 2, "carnegie": 31, "stfips": 6, "fteug": 777, "group": 4, "fips": 6037, "instnm.y": "Harvey Mudd College", "md_earn_wne_p10": "78600" }, "geometry": { "type": "Point", "coordinates": [ -117.710594, 34.106137 ] } },
{ "type": "Feature", "id": 192, "properties": { "unitid": 115728, "year": 2011, "instnm.x": "Holy Names University", "city": "Oakland", "stabbr": "CA", "control": 2, "carnegie": 21, "stfips": 6, "fteug": 696, "group": 4, "fips": 6001, "instnm.y": "Holy Names University", "md_earn_wne_p10": "50100" }, "geometry": { "type": "Point", "coordinates": [ -122.187169, 37.802654 ] } },
{ "type": "Feature", "id": 193, "properties": { "unitid": 115755, "year": 2011, "instnm.x": "Humboldt State University", "city": "Arcata", "stabbr": "CA", "control": 1, "carnegie": 21, "stfips": 6, "fteug": 6882, "group": 2, "fips": 6023, "instnm.y": "Humboldt State University", "md_earn_wne_p10": "36200" }, "geometry": { "type": "Point", "coordinates": [ -124.0814, 40.8741 ] } },
{ "type": "Feature", "id": 194, "properties": { "unitid": 115773, "year": 2011, "instnm.x": "Humphreys College-Stockton and Modesto Campuses", "city": "Stockton", "stabbr": "CA", "control": 2, "carnegie": 33, "stfips": 6, "fteug": 1325, "group": 4, "fips": 6077, "instnm.y": "Humphreys College-Stockton and Modesto Campuses", "md_earn_wne_p10": "31300" }, "geometry": { "type": "Point", "coordinates": [ -121.316401, 38.011051 ] } },
{ "type": "Feature", "id": 195, "properties": { "unitid": 115861, "year": 2011, "instnm.x": "Imperial Valley College", "city": "Imperial", "stabbr": "CA", "control": 1, "carnegie": 40, "stfips": 6, "fteug": 6077, "group": 5, "fips": 6025, "instnm.y": "Imperial Valley College", "md_earn_wne_p10": "24500" }, "geometry": { "type": "Point", "coordinates": [ -115.503903, 32.827563 ] } },
{ "type": "Feature", "id": 196, "properties": { "unitid": 116439, "year": 2011, "instnm.x": "Irvine Valley College", "city": "Irvine", "stabbr": "CA", "control": 1, "carnegie": 40, "stfips": 6, "fteug": 8623, "group": 5, "fips": 6059, "instnm.y": "Irvine Valley College", "md_earn_wne_p10": "35200" }, "geometry": { "type": "Point", "coordinates": [ -117.778575, 33.675079 ] } },
{ "type": "Feature", "id": 197, "properties": { "unitid": 116712, "year": 2011, "instnm.x": "John F Kennedy University", "city": "Pleasant Hill", "stabbr": "CA", "control": 2, "carnegie": 21, "stfips": 6, "fteug": 197, "group": 4, "fips": 6013, "instnm.y": "John F Kennedy University", "md_earn_wne_p10": "39500" }, "geometry": { "type": "Point", "coordinates": [ -122.183972, 37.881794 ] } },
{ "type": "Feature", "id": 198, "properties": { "unitid": 116846, "year": 2011, "instnm.x": "American Jewish University", "city": "Los Angeles", "stabbr": "CA", "control": 2, "carnegie": 31, "stfips": 6, "fteug": 131, "group": 4, "fips": 6037, "instnm.y": "American Jewish University", "md_earn_wne_p10": "PrivacySuppressed" }, "geometry": { "type": "Point", "coordinates": [ -118.471764, 34.128099 ] } },
{ "type": "Feature", "id": 199, "properties": { "unitid": 117052, "year": 2011, "instnm.x": "Reedley College", "city": "Reedley", "stabbr": "CA", "control": 1, "carnegie": 40, "stfips": 6, "fteug": 9288, "group": 5, "fips": 6019, "instnm.y": "Reedley College", "md_earn_wne_p10": "25200" }, "geometry": { "type": "Point", "coordinates": [ -119.45993, 36.605968 ] } },
{ "type": "Feature", "id": 200, "properties": { "unitid": 117140, "year": 2011, "instnm.x": "University of La Verne", "city": "La Verne", "stabbr": "CA", "control": 2, "carnegie": 16, "stfips": 6, "fteug": 3691, "group": 3, "fips": 6037, "instnm.y": "University of La Verne", "md_earn_wne_p10": "52700" }, "geometry": { "type": "Point", "coordinates": [ -117.772634, 34.10086 ] } },
{ "type": "Feature", "id": 201, "properties": { "unitid": 117195, "year": 2011, "instnm.x": "Lake Tahoe Community College", "city": "South Lake Tahoe", "stabbr": "CA", "control": 1, "carnegie": 40, "stfips": 6, "fteug": 1890, "group": 5, "fips": 6017, "instnm.y": "Lake Tahoe Community College", "md_earn_wne_p10": "28400" }, "geometry": { "type": "Point", "coordinates": [ -119.971631, 38.926864 ] } },
{ "type": "Feature", "id": 202, "properties": { "unitid": 117247, "year": 2011, "instnm.x": "Laney College", "city": "Oakland", "stabbr": "CA", "control": 1, "carnegie": 40, "stfips": 6, "fteug": 7912, "group": 5, "fips": 6001, "instnm.y": "Laney College", "md_earn_wne_p10": "27600" }, "geometry": { "type": "Point", "coordinates": [ -122.262434, 37.796205 ] } },
{ "type": "Feature", "id": 203, "properties": { "unitid": 117274, "year": 2011, "instnm.x": "Lassen Community College", "city": "Susanville", "stabbr": "CA", "control": 1, "carnegie": 40, "stfips": 6, "fteug": 1696, "group": 5, "fips": 6035, "instnm.y": "Lassen Community College", "md_earn_wne_p10": "25300" }, "geometry": { "type": "Point", "coordinates": [ -120.631169, 40.431327 ] } },
{ "type": "Feature", "id": 204, "properties": { "unitid": 117627, "year": 2011, "instnm.x": "La Sierra University", "city": "Riverside", "stabbr": "CA", "control": 2, "carnegie": 21, "stfips": 6, "fteug": 1550, "group": 4, "fips": 6065, "instnm.y": "La Sierra University", "md_earn_wne_p10": "41300" }, "geometry": { "type": "Point", "coordinates": [ -117.497071, 33.908834 ] } },
{ "type": "Feature", "id": 205, "properties": { "unitid": 117636, "year": 2011, "instnm.x": "Loma Linda University", "city": "Loma Linda", "stabbr": "CA", "control": 2, "carnegie": 16, "stfips": 6, "fteug": 1005, "group": 3, "fips": 6071, "instnm.y": "Loma Linda University", "md_earn_wne_p10": "72800" }, "geometry": { "type": "Point", "coordinates": [ -117.261054, 34.051498 ] } },
{ "type": "Feature", "id": 206, "properties": { "unitid": 117645, "year": 2011, "instnm.x": "Long Beach City College", "city": "Long Beach", "stabbr": "CA", "control": 1, "carnegie": 40, "stfips": 6, "fteug": 15244, "group": 5, "fips": 6037, "instnm.y": "Long Beach City College", "md_earn_wne_p10": "27800" }, "geometry": { "type": "Point", "coordinates": [ -118.135819, 33.831741 ] } },
{ "type": "Feature", "id": 207, "properties": { "unitid": 117690, "year": 2011, "instnm.x": "Los Angeles Harbor College", "city": "Wilmington", "stabbr": "CA", "control": 1, "carnegie": 40, "stfips": 6, "fteug": 6131, "group": 5, "fips": 6037, "instnm.y": "Los Angeles Harbor College", "md_earn_wne_p10": "29700" }, "geometry": { "type": "Point", "coordinates": [ -118.28186, 33.784201 ] } },
{ "type": "Feature", "id": 208, "properties": { "unitid": 117706, "year": 2011, "instnm.x": "Los Angeles Pierce College", "city": "Woodland Hills", "stabbr": "CA", "control": 1, "carnegie": 40, "stfips": 6, "fteug": 12490, "group": 5, "fips": 6037, "instnm.y": "Los Angeles Pierce College", "md_earn_wne_p10": "33600" }, "geometry": { "type": "Point", "coordinates": [ -118.577194, 34.184184 ] } },
{ "type": "Feature", "id": 209, "properties": { "unitid": 117715, "year": 2011, "instnm.x": "Los Angeles Southwest College", "city": "Los Angeles", "stabbr": "CA", "control": 1, "carnegie": 40, "stfips": 6, "fteug": 3960, "group": 5, "fips": 6037, "instnm.y": "Los Angeles Southwest College", "md_earn_wne_p10": "25900" }, "geometry": { "type": "Point", "coordinates": [ -118.304674, 33.929586 ] } },
{ "type": "Feature", "id": 210, "properties": { "unitid": 117724, "year": 2011, "instnm.x": "Los Angeles Trade Technical College", "city": "Los Angeles", "stabbr": "CA", "control": 1, "carnegie": 40, "stfips": 6, "fteug": 8382, "group": 5, "fips": 6037, "instnm.y": "Los Angeles Trade Technical College", "md_earn_wne_p10": "26500" }, "geometry": { "type": "Point", "coordinates": [ -118.269113, 34.032623 ] } },
{ "type": "Feature", "id": 211, "properties": { "unitid": 117733, "year": 2011, "instnm.x": "Los Angeles Valley College", "city": "Valley Glen", "stabbr": "CA", "control": 1, "carnegie": 40, "stfips": 6, "fteug": 10818, "group": 5, "fips": 6037, "instnm.y": "Los Angeles Valley College", "md_earn_wne_p10": "30600" }, "geometry": { "type": "Point", "coordinates": [ -118.421446, 34.176406 ] } },
{ "type": "Feature", "id": 212, "properties": { "unitid": 117751, "year": 2011, "instnm.x": "The Master's College and Seminary", "city": "Santa Clarita", "stabbr": "CA", "control": 2, "carnegie": 32, "stfips": 6, "fteug": 1284, "group": 4, "fips": 6037, "instnm.y": "The Master's College and Seminary", "md_earn_wne_p10": "40900" }, "geometry": { "type": "Point", "coordinates": [ -118.517422, 34.38214 ] } },
{ "type": "Feature", "id": 213, "properties": { "unitid": 117788, "year": 2011, "instnm.x": "Los Angeles City College", "city": "Los Angeles", "stabbr": "CA", "control": 1, "carnegie": 40, "stfips": 6, "fteug": 11248, "group": 5, "fips": 6037, "instnm.y": "Los Angeles City College", "md_earn_wne_p10": "25600" }, "geometry": { "type": "Point", "coordinates": [ -118.292169, 34.087301 ] } },
{ "type": "Feature", "id": 214, "properties": { "unitid": 117803, "year": 2011, "instnm.x": "Los Angeles County College of Nursing and Allied Health", "city": "Los Angeles", "stabbr": "CA", "control": 1, "carnegie": 40, "stfips": 6, "fteug": 170, "group": 5, "fips": 6037, "instnm.y": "Los Angeles County College of Nursing and Allied Health", "md_earn_wne_p10": "85800" }, "geometry": { "type": "Point", "coordinates": [ -118.211418, 34.061605 ] } },
{ "type": "Feature", "id": 215, "properties": { "unitid": 117867, "year": 2011, "instnm.x": "Los Angeles Mission College", "city": "Sylmar", "stabbr": "CA", "control": 1, "carnegie": 40, "stfips": 6, "fteug": 5845, "group": 5, "fips": 6037, "instnm.y": "Los Angeles Mission College", "md_earn_wne_p10": "28900" }, "geometry": { "type": "Point", "coordinates": [ -118.419087, 34.314944 ] } },
{ "type": "Feature", "id": 216, "properties": { "unitid": 117894, "year": 2011, "instnm.x": "Los Medanos College", "city": "Pittsburg", "stabbr": "CA", "control": 1, "carnegie": 40, "stfips": 6, "fteug": 6002, "group": 5, "fips": 6013, "instnm.y": "Los Medanos College", "md_earn_wne_p10": "34300" }, "geometry": { "type": "Point", "coordinates": [ -121.861122, 38.005552 ] } },
{ "type": "Feature", "id": 217, "properties": { "unitid": 117946, "year": 2011, "instnm.x": "Loyola Marymount University", "city": "Los Angeles", "stabbr": "CA", "control": 2, "carnegie": 21, "stfips": 6, "fteug": 5746, "group": 4, "fips": 6037, "instnm.y": "Loyola Marymount University", "md_earn_wne_p10": "55600" }, "geometry": { "type": "Point", "coordinates": [ -118.415655, 33.970633 ] } },
{ "type": "Feature", "id": 218, "properties": { "unitid": 118347, "year": 2011, "instnm.x": "College of Marin", "city": "Kentfield", "stabbr": "CA", "control": 1, "carnegie": 40, "stfips": 6, "fteug": 4923, "group": 5, "fips": 6041, "instnm.y": "College of Marin", "md_earn_wne_p10": "32300" }, "geometry": { "type": "Point", "coordinates": [ -122.549936, 37.955014 ] } },
{ "type": "Feature", "id": 219, "properties": { "unitid": 118684, "year": 2011, "instnm.x": "Mendocino College", "city": "Ukiah", "stabbr": "CA", "control": 1, "carnegie": 40, "stfips": 6, "fteug": 2426, "group": 5, "fips": 6045, "instnm.y": "Mendocino College", "md_earn_wne_p10": "23500" }, "geometry": { "type": "Point", "coordinates": [ -123.22903, 39.19119 ] } },
{ "type": "Feature", "id": 220, "properties": { "unitid": 118693, "year": 2011, "instnm.x": "Menlo College", "city": "Atherton", "stabbr": "CA", "control": 2, "carnegie": 32, "stfips": 6, "fteug": 655, "group": 4, "fips": 6081, "instnm.y": "Menlo College", "md_earn_wne_p10": "50600" }, "geometry": { "type": "Point", "coordinates": [ -122.181444, 37.452906 ] } },
{ "type": "Feature", "id": 221, "properties": { "unitid": 118718, "year": 2011, "instnm.x": "Merced College", "city": "Merced", "stabbr": "CA", "control": 1, "carnegie": 40, "stfips": 6, "fteug": 7821, "group": 5, "fips": 6047, "instnm.y": "Merced College", "md_earn_wne_p10": "26100" }, "geometry": { "type": "Point", "coordinates": [ -120.476726, 37.335348 ] } },
{ "type": "Feature", "id": 222, "properties": { "unitid": 118772, "year": 2011, "instnm.x": "Merritt College", "city": "Oakland", "stabbr": "CA", "control": 1, "carnegie": 40, "stfips": 6, "fteug": 4000, "group": 5, "fips": 6001, "instnm.y": "Merritt College", "md_earn_wne_p10": "28500" }, "geometry": { "type": "Point", "coordinates": [ -122.167335, 37.789088 ] } },
{ "type": "Feature", "id": 223, "properties": { "unitid": 118888, "year": 2011, "instnm.x": "Mills College", "city": "Oakland", "stabbr": "CA", "control": 2, "carnegie": 31, "stfips": 6, "fteug": 936, "group": 4, "fips": 6001, "instnm.y": "Mills College", "md_earn_wne_p10": "39000" }, "geometry": { "type": "Point", "coordinates": [ -122.18789, 37.782639 ] } },
{ "type": "Feature", "id": 224, "properties": { "unitid": 118912, "year": 2011, "instnm.x": "MiraCosta College", "city": "Oceanside", "stabbr": "CA", "control": 1, "carnegie": 40, "stfips": 6, "fteug": 11635, "group": 5, "fips": 6073, "instnm.y": "MiraCosta College", "md_earn_wne_p10": "29500" }, "geometry": { "type": "Point", "coordinates": [ -117.302283, 33.191231 ] } },
{ "type": "Feature", "id": 225, "properties": { "unitid": 118930, "year": 2011, "instnm.x": "Mission College", "city": "Santa Clara", "stabbr": "CA", "control": 1, "carnegie": 40, "stfips": 6, "fteug": 5974, "group": 5, "fips": 6085, "instnm.y": "Mission College", "md_earn_wne_p10": "32800" }, "geometry": { "type": "Point", "coordinates": [ -121.982174, 37.391323 ] } },
{ "type": "Feature", "id": 226, "properties": { "unitid": 118976, "year": 2011, "instnm.x": "Modesto Junior College", "city": "Modesto", "stabbr": "CA", "control": 1, "carnegie": 40, "stfips": 6, "fteug": 11589, "group": 5, "fips": 6099, "instnm.y": "Modesto Junior College", "md_earn_wne_p10": "27500" }, "geometry": { "type": "Point", "coordinates": [ -121.009723, 37.652042 ] } },
{ "type": "Feature", "id": 227, "properties": { "unitid": 119058, "year": 2011, "instnm.x": "Monterey Institute of International Studies", "city": "Monterey", "stabbr": "CA", "control": 2, "carnegie": 21, "stfips": 6, "fteug": 13, "group": 4, "fips": 6053, "instnm.y": "Monterey Institute of International Studies", "md_earn_wne_p10": "53400" }, "geometry": { "type": "Point", "coordinates": [ -121.896813, 36.599827 ] } },
{ "type": "Feature", "id": 228, "properties": { "unitid": 119067, "year": 2011, "instnm.x": "Monterey Peninsula College", "city": "Monterey", "stabbr": "CA", "control": 1, "carnegie": 40, "stfips": 6, "fteug": 4967, "group": 5, "fips": 6053, "instnm.y": "Monterey Peninsula College", "md_earn_wne_p10": "34100" }, "geometry": { "type": "Point", "coordinates": [ -121.885774, 36.590826 ] } },
{ "type": "Feature", "id": 229, "properties": { "unitid": 119137, "year": 2011, "instnm.x": "Moorpark College", "city": "Moorpark", "stabbr": "CA", "control": 1, "carnegie": 40, "stfips": 6, "fteug": 10526, "group": 5, "fips": 6111, "instnm.y": "Moorpark College", "md_earn_wne_p10": "38500" }, "geometry": { "type": "Point", "coordinates": [ -118.836624, 34.300018 ] } },
{ "type": "Feature", "id": 230, "properties": { "unitid": 119164, "year": 2011, "instnm.x": "Mt. San Antonio College", "city": "Walnut", "stabbr": "CA", "control": 1, "carnegie": 40, "stfips": 6, "fteug": 20533, "group": 5, "fips": 6037, "instnm.y": "Mt. San Antonio College", "md_earn_wne_p10": "33800" }, "geometry": { "type": "Point", "coordinates": [ -117.8437, 34.043786 ] } },
{ "type": "Feature", "id": 231, "properties": { "unitid": 119173, "year": 2011, "instnm.x": "Mount St. Mary's College", "city": "Los Angeles", "stabbr": "CA", "control": 2, "carnegie": 21, "stfips": 6, "fteug": 1957, "group": 4, "fips": 6037, "instnm.y": "Mount St. Mary's College", "md_earn_wne_p10": "50200" }, "geometry": { "type": "Point", "coordinates": [ -118.480471, 34.082112 ] } },
{ "type": "Feature", "id": 232, "properties": { "unitid": 119216, "year": 2011, "instnm.x": "Mt. San Jacinto Community College District", "city": "San Jacinto", "stabbr": "CA", "control": 1, "carnegie": 40, "stfips": 6, "fteug": 10933, "group": 5, "fips": 6065, "instnm.y": "Mt. San Jacinto Community College District", "md_earn_wne_p10": "26500" }, "geometry": { "type": "Point", "coordinates": [ -116.970063, 33.807364 ] } },
{ "type": "Feature", "id": 233, "properties": { "unitid": 119331, "year": 2011, "instnm.x": "Napa Valley College", "city": "Napa", "stabbr": "CA", "control": 1, "carnegie": 40, "stfips": 6, "fteug": 3527, "group": 5, "fips": 6055, "instnm.y": "Napa Valley College", "md_earn_wne_p10": "34300" }, "geometry": { "type": "Point", "coordinates": [ -122.272565, 38.27254 ] } },
{ "type": "Feature", "id": 234, "properties": { "unitid": 119605, "year": 2011, "instnm.x": "National University", "city": "La Jolla", "stabbr": "CA", "control": 2, "carnegie": 21, "stfips": 6, "fteug": 8985, "group": 4, "fips": 6073, "instnm.y": "National University", "md_earn_wne_p10": "54800" }, "geometry": { "type": "Point", "coordinates": [ -117.244243, 32.909469 ] } },
{ "type": "Feature", "id": 235, "properties": { "unitid": 120184, "year": 2011, "instnm.x": "Notre Dame de Namur University", "city": "Belmont", "stabbr": "CA", "control": 2, "carnegie": 21, "stfips": 6, "fteug": 856, "group": 4, "fips": 6081, "instnm.y": "Notre Dame de Namur University", "md_earn_wne_p10": "51300" }, "geometry": { "type": "Point", "coordinates": [ -122.284618, 37.517501 ] } },
{ "type": "Feature", "id": 236, "properties": { "unitid": 120254, "year": 2011, "instnm.x": "Occidental College", "city": "Los Angeles", "stabbr": "CA", "control": 2, "carnegie": 31, "stfips": 6, "fteug": 2162, "group": 4, "fips": 6037, "instnm.y": "Occidental College", "md_earn_wne_p10": "50100" }, "geometry": { "type": "Point", "coordinates": [ -118.210783, 34.126224 ] } },
{ "type": "Feature", "id": 237, "properties": { "unitid": 120290, "year": 2011, "instnm.x": "Ohlone Community College", "city": "Fremont", "stabbr": "CA", "control": 1, "carnegie": 40, "stfips": 6, "fteug": 6483, "group": 5, "fips": 6001, "instnm.y": "Ohlone Community College", "md_earn_wne_p10": "39000" }, "geometry": { "type": "Point", "coordinates": [ -121.914597, 37.527956 ] } },
{ "type": "Feature", "id": 238, "properties": { "unitid": 120342, "year": 2011, "instnm.x": "Orange Coast College", "city": "Costa Mesa", "stabbr": "CA", "control": 1, "carnegie": 40, "stfips": 6, "fteug": 14999, "group": 5, "fips": 6059, "instnm.y": "Orange Coast College", "md_earn_wne_p10": "34800" }, "geometry": { "type": "Point", "coordinates": [ -117.911401, 33.670171 ] } },
{ "type": "Feature", "id": 239, "properties": { "unitid": 120421, "year": 2011, "instnm.x": "Oxnard College", "city": "Oxnard", "stabbr": "CA", "control": 1, "carnegie": 40, "stfips": 6, "fteug": 4257, "group": 5, "fips": 6111, "instnm.y": "Oxnard College", "md_earn_wne_p10": "29100" }, "geometry": { "type": "Point", "coordinates": [ -119.15549, 34.164899 ] } },
{ "type": "Feature", "id": 240, "properties": { "unitid": 120537, "year": 2011, "instnm.x": "Hope International University", "city": "Fullerton", "stabbr": "CA", "control": 2, "carnegie": 21, "stfips": 6, "fteug": 636, "group": 4, "fips": 6059, "instnm.y": "Hope International University", "md_earn_wne_p10": "35100" }, "geometry": { "type": "Point", "coordinates": [ -117.88573, 33.87616 ] } },
{ "type": "Feature", "id": 241, "properties": { "unitid": 120865, "year": 2011, "instnm.x": "Pacific Union College", "city": "Angwin", "stabbr": "CA", "control": 2, "carnegie": 32, "stfips": 6, "fteug": 1425, "group": 4, "fips": 6055, "instnm.y": "Pacific Union College", "md_earn_wne_p10": "48600" }, "geometry": { "type": "Point", "coordinates": [ -122.449639, 38.57409 ] } },
{ "type": "Feature", "id": 242, "properties": { "unitid": 120883, "year": 2011, "instnm.x": "University of the Pacific", "city": "Stockton", "stabbr": "CA", "control": 2, "carnegie": 16, "stfips": 6, "fteug": 4060, "group": 3, "fips": 6077, "instnm.y": "University of the Pacific", "md_earn_wne_p10": "66400" }, "geometry": { "type": "Point", "coordinates": [ -121.307296, 37.980624 ] } },
{ "type": "Feature", "id": 243, "properties": { "unitid": 120953, "year": 2011, "instnm.x": "Palo Verde College", "city": "Blythe", "stabbr": "CA", "control": 1, "carnegie": 40, "stfips": 6, "fteug": 1279, "group": 5, "fips": 6065, "instnm.y": "Palo Verde College", "md_earn_wne_p10": "26500" }, "geometry": { "type": "Point", "coordinates": [ -114.651698, 33.661538 ] } },
{ "type": "Feature", "id": 244, "properties": { "unitid": 120971, "year": 2011, "instnm.x": "Palomar College", "city": "San Marcos", "stabbr": "CA", "control": 1, "carnegie": 40, "stfips": 6, "fteug": 16551, "group": 5, "fips": 6073, "instnm.y": "Palomar College", "md_earn_wne_p10": "31700" }, "geometry": { "type": "Point", "coordinates": [ -117.181718, 33.15019 ] } },
{ "type": "Feature", "id": 245, "properties": { "unitid": 121044, "year": 2011, "instnm.x": "Pasadena City College", "city": "Pasadena", "stabbr": "CA", "control": 1, "carnegie": 40, "stfips": 6, "fteug": 18055, "group": 5, "fips": 6037, "instnm.y": "Pasadena City College", "md_earn_wne_p10": "33500" }, "geometry": { "type": "Point", "coordinates": [ -118.118196, 34.144552 ] } },
{ "type": "Feature", "id": 246, "properties": { "unitid": 121071, "year": 2011, "instnm.x": "Patten University", "city": "Oakland", "stabbr": "CA", "control": 2, "carnegie": 32, "stfips": 6, "fteug": 602, "group": 4, "fips": 6001, "instnm.y": "Patten University", "md_earn_wne_p10": "28900" }, "geometry": { "type": "Point", "coordinates": [ -122.219572, 37.786137 ] } },
{ "type": "Feature", "id": 247, "properties": { "unitid": 121150, "year": 2011, "instnm.x": "Pepperdine University", "city": "Malibu", "stabbr": "CA", "control": 2, "carnegie": 16, "stfips": 6, "fteug": 3523, "group": 3, "fips": 6037, "instnm.y": "Pepperdine University", "md_earn_wne_p10": "61400" }, "geometry": { "type": "Point", "coordinates": [ -118.707677, 34.041912 ] } },
{ "type": "Feature", "id": 248, "properties": { "unitid": 121257, "year": 2011, "instnm.x": "Pitzer College", "city": "Claremont", "stabbr": "CA", "control": 2, "carnegie": 31, "stfips": 6, "fteug": 994, "group": 4, "fips": 6037, "instnm.y": "Pitzer College", "md_earn_wne_p10": "45300" }, "geometry": { "type": "Point", "coordinates": [ -117.705939, 34.103408 ] } },
{ "type": "Feature", "id": 249, "properties": { "unitid": 121309, "year": 2011, "instnm.x": "Point Loma Nazarene University", "city": "San Diego", "stabbr": "CA", "control": 2, "carnegie": 22, "stfips": 6, "fteug": 2420, "group": 4, "fips": 6073, "instnm.y": "Point Loma Nazarene University", "md_earn_wne_p10": "50300" }, "geometry": { "type": "Point", "coordinates": [ -117.251204, 32.713295 ] } },
{ "type": "Feature", "id": 250, "properties": { "unitid": 121345, "year": 2011, "instnm.x": "Pomona College", "city": "Claremont", "stabbr": "CA", "control": 2, "carnegie": 31, "stfips": 6, "fteug": 1546, "group": 4, "fips": 6037, "instnm.y": "Pomona College", "md_earn_wne_p10": "52600" }, "geometry": { "type": "Point", "coordinates": [ -117.711944, 34.098298 ] } },
{ "type": "Feature", "id": 251, "properties": { "unitid": 121363, "year": 2011, "instnm.x": "Porterville College", "city": "Porterville", "stabbr": "CA", "control": 1, "carnegie": 40, "stfips": 6, "fteug": 2788, "group": 5, "fips": 6107, "instnm.y": "Porterville College", "md_earn_wne_p10": "26100" }, "geometry": { "type": "Point", "coordinates": [ -119.014368, 36.049256 ] } },
{ "type": "Feature", "id": 252, "properties": { "unitid": 121619, "year": 2011, "instnm.x": "Santa Ana College", "city": "Santa Ana", "stabbr": "CA", "control": 1, "carnegie": 40, "stfips": 6, "fteug": 11323, "group": 5, "fips": 6059, "instnm.y": "Santa Ana College", "md_earn_wne_p10": "32400" }, "geometry": { "type": "Point", "coordinates": [ -117.888384, 33.759203 ] } },
{ "type": "Feature", "id": 253, "properties": { "unitid": 121691, "year": 2011, "instnm.x": "University of Redlands", "city": "Redlands", "stabbr": "CA", "control": 2, "carnegie": 21, "stfips": 6, "fteug": 3060, "group": 4, "fips": 6071, "instnm.y": "University of Redlands", "md_earn_wne_p10": "53800" }, "geometry": { "type": "Point", "coordinates": [ -117.163847, 34.063571 ] } },
{ "type": "Feature", "id": 254, "properties": { "unitid": 121707, "year": 2011, "instnm.x": "College of the Redwoods", "city": "Eureka", "stabbr": "CA", "control": 1, "carnegie": 40, "stfips": 6, "fteug": 4051, "group": 5, "fips": 6023, "instnm.y": "College of the Redwoods", "md_earn_wne_p10": "25300" }, "geometry": { "type": "Point", "coordinates": [ -124.195075, 40.696744 ] } },